{
"type": "FeatureCollection",
"crs": { "type": "name", "properties": { "name": "urn:ogc:def:crs:OGC:1.3:CRS84" } },
                                                                                
"features": [
{ "type": "Feature", "properties": { "WKT": "POINT (-81.630861004999986 41.392684116000055)", "OBJECTID_1": "1", "OBJECTID": "1", "Name": "Rockside Boarding Station", "Address": "7900 Old Rockside Road", "ZipCode": "44131.00000000000", "Use": "Railroad Station", "geom": "", "source": "CVNP", "steward": "CVNP", "Trail2": "", "Trail3": "", "Trail4": "", "Trail5": "", "Trail6": "", "park": "CVNP", "city": "Independence", "county": "Summit", "state": "Ohio", "Trail1": "Ohio & Erie Canal Towpath Trail", "availabili": "Y", "availabi_1": "Y", "availabi_2": "N", "availabi_3": "Y", "Contact_Nu": "330-657-2752", "Jurisdicti": "Independence", "Longitude": "81° 37' 51.09\" W", "Latitude": "41° 23' 33.63\" N" }, "geometry": { "type": "Point", "coordinates": [ -81.630861004999986, 41.392684116000055 ] } },
{ "type": "Feature", "properties": { "WKT": "POINT (-81.628405344999976 41.392760757000076)", "OBJECTID_1": "2", "OBJECTID": "2", "Name": "Lock39 Trailhead on the Towpath", "Address": "8000 Rockside Road", "ZipCode": "44125.00000000000", "Use": "Trailhead", "geom": "", "source": "CVNP", "steward": "CVNP", "Trail2": "", "Trail3": "", "Trail4": "", "Trail5": "", "Trail6": "", "park": "CVNP", "city": "Valley View", "county": "Cuyahoga", "state": "Ohio", "Trail1": "Ohio & Erie Canal Towpath Trail", "availabili": "Y", "availabi_1": "Y", "availabi_2": "Y", "availabi_3": "Y", "Contact_Nu": "330-657-2752", "Jurisdicti": "Valley View", "Longitude": "81° 37' 42.25\" W", "Latitude": "41° 23' 33.91\" N" }, "geometry": { "type": "Point", "coordinates": [ -81.628405344999976, 41.392760757000076 ] } },
{ "type": "Feature", "properties": { "WKT": "POINT (-81.588071554999928 41.319037087000027)", "OBJECTID_1": "6", "OBJECTID": "6", "Name": "Brecksville Station", "Address": "13512 Station Road", "ZipCode": "44141.00000000000", "Use": "Railroad Station", "geom": "", "source": "CVNP", "steward": "CVNP", "Trail2": "", "Trail3": "", "Trail4": "", "Trail5": "", "Trail6": "", "park": "CVNP", "city": "Brecksville", "county": "Summit", "state": "Ohio", "Trail1": "Ohio & Erie Canal Towpath Trail", "availabili": "Y", "availabi_1": "Y", "availabi_2": "N", "availabi_3": "Y", "Contact_Nu": "330-657-2752", "Jurisdicti": "Brecksville", "Longitude": "81° 35' 17.04\" W", "Latitude": "41° 19' 8.50\" N" }, "geometry": { "type": "Point", "coordinates": [ -81.588071554999928, 41.319037087000027 ] } },
{ "type": "Feature", "properties": { "WKT": "POINT (-81.540121222999971 41.276789648000033)", "OBJECTID_1": "8", "OBJECTID": "8", "Name": "Brandywine Falls", "Address": "8176 Brandywine Road", "ZipCode": "44067.00000000000", "Use": "Trailhead", "geom": "", "source": "CVNP", "steward": "CVNP", "Trail2": "Brandywine Falls Lower Walkway", "Trail3": "Bike & Hike Trail", "Trail4": "Brandywine Gorge Trail", "Trail5": "Brandywine Gorge Trail", "Trail6": "", "park": "CVNP", "city": "Northfield Center", "county": "Summit", "state": "Ohio", "Trail1": "Brandywine Falls Upper Boardwalk", "availabili": "Y", "availabi_1": "Y", "availabi_2": "N", "availabi_3": "Y", "Contact_Nu": "330-657-2752", "Jurisdicti": "Northfield Center", "Longitude": "81° 32' 24.42\" W", "Latitude": "41° 16' 36.41\" N" }, "geometry": { "type": "Point", "coordinates": [ -81.540121222999971, 41.276789648000033 ] } },
{ "type": "Feature", "properties": { "WKT": "POINT (-81.571735051999951 41.288630400000045)", "OBJECTID_1": "9", "OBJECTID": "9", "Name": "Buckeye Trailhead at Jaite", "Address": "15711 Vaughn Road", "ZipCode": "44141.00000000000", "Use": "Trailhead", "geom": "", "source": "CVNP", "steward": "CVNP", "Trail2": "Ohio & Erie Canal Towpath Trail", "Trail3": "", "Trail4": "", "Trail5": "", "Trail6": "", "park": "CVNP", "city": "Brecksville", "county": "Summit", "state": "Ohio", "Trail1": "Buckeye Trail", "availabili": "Y", "availabi_1": "N", "availabi_2": "N", "availabi_3": "N", "Contact_Nu": "330-657-2752", "Jurisdicti": "Brecksville", "Longitude": "81° 34' 18.23\" W", "Latitude": "41° 17' 19.04\" N" }, "geometry": { "type": "Point", "coordinates": [ -81.571735051999951, 41.288630400000045 ] } },
{ "type": "Feature", "properties": { "WKT": "POINT (-81.564773011999989 41.289421073000028)", "OBJECTID_1": "10", "OBJECTID": "10", "Name": "Red Lock on the Towpath", "Address": "1175 Highland Road", "ZipCode": "44067.00000000000", "Use": "Trailhead", "geom": "", "source": "CVNP", "steward": "CVNP", "Trail2": "Buckeye Trail", "Trail3": "Valley Trail", "Trail4": "", "Trail5": "", "Trail6": "", "park": "CVNP", "city": "Northfield", "county": "Summit", "state": "Ohio", "Trail1": "Ohio & Erie Canal Towpath Trail", "availabili": "Y", "availabi_1": "Y", "availabi_2": "N", "availabi_3": "Y", "Contact_Nu": "330-657-2752", "Jurisdicti": "Northfield", "Longitude": "81° 33' 53.17\" W", "Latitude": "41° 17' 21.89\" N" }, "geometry": { "type": "Point", "coordinates": [ -81.564773011999989, 41.289421073000028 ] } },
{ "type": "Feature", "properties": { "WKT": "POINT (-81.561137741999971 41.262908657000018)", "OBJECTID_1": "12", "OBJECTID": "12", "Name": "Boston Mill Boarding Station", "Address": "1629 Boston Mills Road", "ZipCode": "44264.00000000000", "Use": "Railroad Station", "geom": "", "source": "CVNP", "steward": "CVNP", "Trail2": "", "Trail3": "", "Trail4": "", "Trail5": "", "Trail6": "", "park": "CVNP", "city": "Boston Township", "county": "Summit", "state": "Ohio", "Trail1": "Ohio & Erie Canal Towpath Trail", "availabili": "Y", "availabi_1": "Y", "availabi_2": "N", "availabi_3": "Y", "Contact_Nu": "330-657-2752", "Jurisdicti": "Boston Township", "Longitude": "81° 33' 40.08\" W", "Latitude": "41° 15' 46.44\" N" }, "geometry": { "type": "Point", "coordinates": [ -81.561137741999971, 41.262908657000018 ] } },
{ "type": "Feature", "properties": { "WKT": "POINT (-81.51888392799998 41.255025618000047)", "OBJECTID_1": "16", "OBJECTID": "16", "Name": "Bike and Hike Trailhead", "Address": "315 Boston Mills Road", "ZipCode": "44236.00000000000", "Use": "Trailhead", "geom": "", "source": "CVNP", "steward": "CVNP", "Trail2": "", "Trail3": "", "Trail4": "", "Trail5": "", "Trail6": "", "park": "CVNP", "city": "Boston Heights", "county": "Summit", "state": "Ohio", "Trail1": "Bike & Hike Trail", "availabili": "Y", "availabi_1": "Y", "availabi_2": "N", "availabi_3": "N", "Contact_Nu": "330-657-2752", "Jurisdicti": "Boston Heights", "Longitude": "81° 31' 7.97\" W", "Latitude": "41° 15' 18.06\" N" }, "geometry": { "type": "Point", "coordinates": [ -81.51888392799998, 41.255025618000047 ] } },
{ "type": "Feature", "properties": { "WKT": "POINT (-81.507122741999979 41.231982212000048)", "OBJECTID_1": "17", "OBJECTID": "17", "Name": "Happy Days North\/ Boston Run Trailhead", "Address": "501 West Streetsboro Road", "ZipCode": "44236.00000000000", "Use": "Trailhead", "geom": "", "source": "CVNP", "steward": "CVNP", "Trail2": "Haskell Run Trail", "Trail3": "Ledges Trail", "Trail4": "", "Trail5": "", "Trail6": "", "park": "CVNP", "city": "Boston Heights", "county": "Summit", "state": "Ohio", "Trail1": "Boston Run Trail", "availabili": "Y", "availabi_1": "Y", "availabi_2": "N", "availabi_3": "Y", "Contact_Nu": "330-657-2752", "Jurisdicti": "Boston Heights", "Longitude": "81° 30' 25.63\" W", "Latitude": "41° 13' 55.11\" N" }, "geometry": { "type": "Point", "coordinates": [ -81.507122741999979, 41.231982212000048 ] } },
{ "type": "Feature", "properties": { "WKT": "POINT (-81.513627632999942 41.226012709000031)", "OBJECTID_1": "22", "OBJECTID": "22", "Name": "Pine Grove at the Octagon", "Address": "499 Kendall Park Road", "ZipCode": "44264.00000000000", "Use": "Trailhead", "geom": "", "source": "CVNP", "steward": "CVNP", "Trail2": "Ledges Trail", "Trail3": "", "Trail4": "", "Trail5": "", "Trail6": "", "park": "CVNP", "city": "Boston Township", "county": "Summit", "state": "Ohio", "Trail1": "Pine Grove Trail", "availabili": "Y", "availabi_1": "Y", "availabi_2": "N", "availabi_3": "Y", "Contact_Nu": "330-657-2752", "Jurisdicti": "Boston Township", "Longitude": "81° 30' 49.05\" W", "Latitude": "41° 13' 33.62\" N" }, "geometry": { "type": "Point", "coordinates": [ -81.513627632999942, 41.226012709000031 ] } },
{ "type": "Feature", "properties": { "WKT": "POINT (-81.538686010999982 41.239358031000052)", "OBJECTID_1": "23", "OBJECTID": "23", "Name": "Pine Lane Trailhead", "Address": "1281 Pine Lane", "ZipCode": "44264.00000000000", "Use": "Trailhead", "geom": "", "source": "CVNP", "steward": "CVNP", "Trail2": "Buckeye Trail", "Trail3": "Valley Trail", "Trail4": "", "Trail5": "", "Trail6": "", "park": "CVNP", "city": "Peninsula", "county": "Summit", "state": "Ohio", "Trail1": "Ohio & Erie Canal Towpath Trail", "availabili": "Y", "availabi_1": "Y", "availabi_2": "N", "availabi_3": "Y", "Contact_Nu": "330-657-2752", "Jurisdicti": "Peninsula", "Longitude": "81° 32' 19.26\" W", "Latitude": "41° 14' 21.66\" N" }, "geometry": { "type": "Point", "coordinates": [ -81.538686010999982, 41.239358031000052 ] } },
{ "type": "Feature", "properties": { "WKT": "POINT (-81.587885687999972 41.318737642000031)", "OBJECTID_1": "25", "OBJECTID": "25", "Name": "Station Road Bridge Trailhead at the Towpath", "Address": "13614 Station Road", "ZipCode": "44141.00000000000", "Use": "Trailhead", "geom": "", "source": "CVNP", "steward": "CVNP", "Trail2": "Buckeye Trail", "Trail3": "Valley Trail", "Trail4": "", "Trail5": "", "Trail6": "", "park": "CVNP", "city": "Brecksville", "county": "Cuyahoga", "state": "Ohio", "Trail1": "Ohio & Erie Canal Towpath Trail", "availabili": "Y", "availabi_1": "Y", "availabi_2": "Y", "availabi_3": "Y", "Contact_Nu": "330-657-2752", "Jurisdicti": "Brecksville", "Longitude": "81° 35' 16.37\" W", "Latitude": "41° 19' 7.43\" N" }, "geometry": { "type": "Point", "coordinates": [ -81.587885687999972, 41.318737642000031 ] } },
{ "type": "Feature", "properties": { "WKT": "POINT (-81.550362419999942 41.243152793000036)", "OBJECTID_1": "26", "OBJECTID": "26", "Name": "Lock 29 Trailhead on the Towpath", "Address": "1648 Mill Street", "ZipCode": "44264.00000000000", "Use": "Trailhead", "geom": "", "source": "CVNP", "steward": "CVNP", "Trail2": "Buckeye Trail", "Trail3": "", "Trail4": "", "Trail5": "", "Trail6": "", "park": "CVNP", "city": "Peninsula", "county": "Summit", "state": "Ohio", "Trail1": "Ohio & Erie Canal Towpath Trail", "availabili": "Y", "availabi_1": "Y", "availabi_2": "Y", "availabi_3": "Y", "Contact_Nu": "330-657-2752", "Jurisdicti": "Peninsula", "Longitude": "81° 33' 1.29\" W", "Latitude": "41° 14' 35.32\" N" }, "geometry": { "type": "Point", "coordinates": [ -81.550362419999942, 41.243152793000036 ] } },
{ "type": "Feature", "properties": { "WKT": "POINT (-81.549113009999985 41.242255071000045)", "OBJECTID_1": "27", "OBJECTID": "27", "Name": "Peninsula Depot", "Address": "1630 Mill Street", "ZipCode": "44264.00000000000", "Use": "Railroad Station", "geom": "", "source": "CVNP", "steward": "CVNP", "Trail2": "", "Trail3": "", "Trail4": "", "Trail5": "", "Trail6": "", "park": "CVNP", "city": "Peninsula", "county": "Summit", "state": "Ohio", "Trail1": "Ohio & Erie Canal Towpath Trail", "availabili": "Y", "availabi_1": "Y", "availabi_2": "N", "availabi_3": "Y", "Contact_Nu": "330-657-2752", "Jurisdicti": "Peninsula", "Longitude": "81° 32' 56.79\" W", "Latitude": "41° 14' 32.09\" N" }, "geometry": { "type": "Point", "coordinates": [ -81.549113009999985, 41.242255071000045 ] } },
{ "type": "Feature", "properties": { "WKT": "POINT (-81.579362209999942 41.193907342000045)", "OBJECTID_1": "30", "OBJECTID": "30", "Name": "Indigo Lake Boarding Station", "Address": "4300 Riverview Road", "ZipCode": "44264.00000000000", "Use": "Railroad Station", "geom": "", "source": "CVNP", "steward": "CVNP", "Trail2": "", "Trail3": "", "Trail4": "", "Trail5": "", "Trail6": "", "park": "CVNP", "city": "Cuyahoga Falls", "county": "Summit", "state": "Ohio", "Trail1": "Ohio & Erie Canal Towpath Trail", "availabili": "Y", "availabi_1": "Y", "availabi_2": "N", "availabi_3": "Y", "Contact_Nu": "330-657-2752", "Jurisdicti": "Cuyahoga Falls", "Longitude": "81° 34' 45.69\" W", "Latitude": "41° 11' 38.04\" N" }, "geometry": { "type": "Point", "coordinates": [ -81.579362209999942, 41.193907342000045 ] } },
{ "type": "Feature", "properties": { "WKT": "POINT (-81.576060052999935 41.219551271000057)", "OBJECTID_1": "33", "OBJECTID": "33", "Name": "Oak Hill and Plateau Trailheads", "Address": "3901 Oak Hill Road", "ZipCode": "44264.00000000000", "Use": "Trailhead", "geom": "", "source": "CVNP", "steward": "CVNP", "Trail2": "Plateau Trail", "Trail3": "", "Trail4": "", "Trail5": "", "Trail6": "", "park": "CVNP", "city": "Boston Township", "county": "Summit", "state": "Ohio", "Trail1": "Oak Hill Trail", "availabili": "Y", "availabi_1": "Y", "availabi_2": "N", "availabi_3": "Y", "Contact_Nu": "330-657-2752", "Jurisdicti": "Boston Township", "Longitude": "81° 34' 33.80\" W", "Latitude": "41° 13' 10.36\" N" }, "geometry": { "type": "Point", "coordinates": [ -81.576060052999935, 41.219551271000057 ] } },
{ "type": "Feature", "properties": { "WKT": "POINT (-81.574356920999946 41.159062310000024)", "OBJECTID_1": "35", "OBJECTID": "35", "Name": "Botzum Trailhead", "Address": "2928 Riverview Road", "ZipCode": "44313.00000000000", "Use": "Trailhead", "geom": "", "source": "CVNP", "steward": "CVNP", "Trail2": "Buckeye Trail", "Trail3": "", "Trail4": "", "Trail5": "", "Trail6": "", "park": "CVNP", "city": "Akron", "county": "Summit", "state": "Ohio", "Trail1": "Ohio & Erie Canal Towpath Trail", "availabili": "Y", "availabi_1": "Y", "availabi_2": "N", "availabi_3": "Y", "Contact_Nu": "330-657-2752", "Jurisdicti": "Akron", "Longitude": "81° 34' 27.67\" W", "Latitude": "41° 9' 32.60\" N" }, "geometry": { "type": "Point", "coordinates": [ -81.574356920999946, 41.159062310000024 ] } },
{ "type": "Feature", "properties": { "WKT": "POINT (-81.58200911199998 41.183758459000039)", "OBJECTID_1": "37", "OBJECTID": "37", "Name": "Ira Trailhead", "Address": "3801 Riverview Road", "ZipCode": "44264.00000000000", "Use": "Trailhead", "geom": "", "source": "CVNP", "steward": "CVNP", "Trail2": "Buckeye Trail", "Trail3": "", "Trail4": "", "Trail5": "", "Trail6": "", "park": "CVNP", "city": "Cuyahoga Falls", "county": "Summit", "state": "Ohio", "Trail1": "Ohio & Erie Canal Towpath Trail", "availabili": "Y", "availabi_1": "Y", "availabi_2": "N", "availabi_3": "Y", "Contact_Nu": "330-657-2752", "Jurisdicti": "Cuyahoga Falls", "Longitude": "81° 34' 55.22\" W", "Latitude": "41° 11' 1.50\" N" }, "geometry": { "type": "Point", "coordinates": [ -81.58200911199998, 41.183758459000039 ] } },
{ "type": "Feature", "properties": { "WKT": "POINT (-81.531920679999971 41.21486993700006)", "OBJECTID_1": "40", "OBJECTID": "40", "Name": "Pine Hollow and Salt Run", "Address": "5465 Quick Road", "ZipCode": "44264.00000000000", "Use": "Trailhead", "geom": "", "source": "CVNP", "steward": "CVNP", "Trail2": "Wetmore Trail", "Trail3": "Cross Country Trail", "Trail4": "Lake Trail", "Trail5": "", "Trail6": "", "park": "CVNP", "city": "Boston Township", "county": "Summit", "state": "Ohio", "Trail1": "Salt Run Trail", "availabili": "Y", "availabi_1": "Y", "availabi_2": "Y", "availabi_3": "Y", "Contact_Nu": "330-657-2752", "Jurisdicti": "Boston Township", "Longitude": "81° 31' 54.90\" W", "Latitude": "41° 12' 53.50\" N" }, "geometry": { "type": "Point", "coordinates": [ -81.531920679999971, 41.21486993700006 ] } },
{ "type": "Feature", "properties": { "WKT": "POINT (-81.526330511999959 41.209121556000063)", "OBJECTID_1": "42", "OBJECTID": "42", "Name": "Little Meadow and Cross Country Trailhead", "Address": "5249 Quick Road", "ZipCode": "44264.00000000000", "Use": "Trailhead", "geom": "", "source": "CVNP", "steward": "CVNP", "Trail2": "Salt Run Trail", "Trail3": "", "Trail4": "", "Trail5": "", "Trail6": "", "park": "CVNP", "city": "Boston Township", "county": "Summit", "state": "Ohio", "Trail1": "Cross Country Trail", "availabili": "Y", "availabi_1": "Y", "availabi_2": "N", "availabi_3": "N", "Contact_Nu": "330-657-2752", "Jurisdicti": "Boston Township", "Longitude": "81° 31' 34.78\" W", "Latitude": "41° 12' 32.81\" N" }, "geometry": { "type": "Point", "coordinates": [ -81.526330511999959, 41.209121556000063 ] } },
{ "type": "Feature", "properties": { "WKT": "POINT (-81.568423434999943 41.234867919000067)", "OBJECTID_1": "46", "OBJECTID": "46", "Name": "Horseshoe Pond", "Address": "2075 Major Road", "ZipCode": "44264.00000000000", "Use": "Trailhead", "geom": "", "source": "CVNP", "steward": "CVNP", "Trail2": "", "Trail3": "", "Trail4": "", "Trail5": "", "Trail6": "", "park": "CVNP", "city": "Boston Township", "county": "Summit", "state": "Ohio", "Trail1": "Tree Farm Trail", "availabili": "Y", "availabi_1": "Y", "availabi_2": "N", "availabi_3": "Y", "Contact_Nu": "330-657-2752", "Jurisdicti": "Boston Township", "Longitude": "81° 34' 6.31\" W", "Latitude": "41° 14' 5.50\" N" }, "geometry": { "type": "Point", "coordinates": [ -81.568423434999943, 41.234867919000067 ] } },
{ "type": "Feature", "properties": { "WKT": "POINT (-81.514697470999977 41.089118015000054)", "OBJECTID_1": "50", "OBJECTID": "50", "Name": "Akron Northside Boarding Station", "Address": "27 Ridge Street", "ZipCode": "44236.00000000000", "Use": "Railroad Station", "geom": "", "source": "CVNP", "steward": "CVNP", "Trail2": "", "Trail3": "", "Trail4": "", "Trail5": "", "Trail6": "", "park": "CVNP", "city": "Akron", "county": "Summit", "state": "Ohio", "Trail1": "Ohio & Erie Canal Towpath Trail", "availabili": "Y", "availabi_1": "Y", "availabi_2": "N", "availabi_3": "Y", "Contact_Nu": "330-657-2752", "Jurisdicti": "Akron", "Longitude": "81° 30' 52.90\" W", "Latitude": "41° 5' 20.80\" N" }, "geometry": { "type": "Point", "coordinates": [ -81.514697470999977, 41.089118015000054 ] } },
{ "type": "Feature", "properties": { "WKT": "POINT (-81.616285615999971 41.37327657000003)", "OBJECTID_1": "63", "OBJECTID": "63", "Name": "Canal Visitor Center Station", "Address": "7104 Canal Road", "ZipCode": "44125.00000000000", "Use": "Railroad Station", "geom": "", "source": "CVNP", "steward": "CVNP", "Trail2": "", "Trail3": "", "Trail4": "", "Trail5": "", "Trail6": "", "park": "CVNP", "city": "Valley View", "county": "Summit", "state": "Ohio", "Trail1": "Ohio & Erie Canal Towpath Trail", "availabili": "Y", "availabi_1": "Y", "availabi_2": "N", "availabi_3": "Y", "Contact_Nu": "330-657-2752", "Jurisdicti": "Valley View", "Longitude": "81° 36' 58.61\" W", "Latitude": "41° 22' 23.77\" N" }, "geometry": { "type": "Point", "coordinates": [ -81.616285615999971, 41.37327657000003 ] } },
{ "type": "Feature", "properties": { "WKT": "POINT (-81.575343911999937 41.159532852000041)", "OBJECTID_1": "66", "OBJECTID": "66", "Name": "Botzum Boarding Station", "Address": "2928 Riverview Road", "ZipCode": "44313.00000000000", "Use": "Trailhead", "geom": "", "source": "CVNP", "steward": "CVNP", "Trail2": "", "Trail3": "", "Trail4": "", "Trail5": "", "Trail6": "", "park": "CVNP", "city": "Akron", "county": "Summit", "state": "Ohio", "Trail1": "Ohio & Erie Canal Towpath Trail", "availabili": "Y", "availabi_1": "Y", "availabi_2": "N", "availabi_3": "Y", "Contact_Nu": "330-657-2752", "Jurisdicti": "Akron", "Longitude": "81° 34' 31.22\" W", "Latitude": "41° 9' 34.29\" N" }, "geometry": { "type": "Point", "coordinates": [ -81.575343911999937, 41.159532852000041 ] } },
{ "type": "Feature", "properties": { "WKT": "POINT (-81.52489867 41.217485983000074)", "OBJECTID_1": "70", "OBJECTID": "70", "Name": "Virginia Kendall Lake and Cross Country Trail", "Address": "1000 Kendall Lake Road", "ZipCode": "44264.00000000000", "Use": "Trailhead", "geom": "", "source": "CVNP", "steward": "CVNP", "Trail2": "Cross Country Trail", "Trail3": "Salt Run Trail", "Trail4": "", "Trail5": "", "Trail6": "", "park": "CVNP", "city": "Boston Township", "county": "Summit", "state": "Ohio", "Trail1": "Lake Trail", "availabili": "Y", "availabi_1": "Y", "availabi_2": "Y", "availabi_3": "Y", "Contact_Nu": "330-657-2752", "Jurisdicti": "Boston Township", "Longitude": "81° 31' 29.62\" W", "Latitude": "41° 13' 2.92\" N" }, "geometry": { "type": "Point", "coordinates": [ -81.52489867, 41.217485983000074 ] } },
{ "type": "Feature", "properties": { "WKT": "POINT (-81.613464874999963 41.372598845000027)", "OBJECTID_1": "75", "OBJECTID": "75", "Name": "Canal Visitor Center", "Address": "7104 Canal Road", "ZipCode": "44125.00000000000", "Use": "Trailhead", "geom": "", "source": "CVNP", "steward": "CVNP", "Trail2": "", "Trail3": "", "Trail4": "", "Trail5": "", "Trail6": "", "park": "CVNP", "city": "Valley View", "county": "Cuyahoga", "state": "Ohio", "Trail1": "Ohio & Erie Canal Towpath Trail", "availabili": "Y", "availabi_1": "Y", "availabi_2": "Y", "availabi_3": "Y", "Contact_Nu": "330-657-2752", "Jurisdicti": "Valley View", "Longitude": "81° 36' 48.46\" W", "Latitude": "41° 22' 21.33\" N" }, "geometry": { "type": "Point", "coordinates": [ -81.613464874999963, 41.372598845000027 ] } },
{ "type": "Feature", "properties": { "WKT": "POINT (-81.593198212999937 41.352221971000063)", "OBJECTID_1": "78", "OBJECTID": "78", "Name": "Frazee House and Trailhead", "Address": "7733 Canal Road", "ZipCode": "44125.00000000000", "Use": "Trailhead", "geom": "", "source": "CVNP", "steward": "CVNP", "Trail2": "Buckeye Trail", "Trail3": "Valley Trail", "Trail4": "", "Trail5": "", "Trail6": "", "park": "CVNP", "city": "Valley View", "county": "Cuyahoga", "state": "Ohio", "Trail1": "Ohio & Erie Canal Towpath Trail", "availabili": "Y", "availabi_1": "Y", "availabi_2": "N", "availabi_3": "Y", "Contact_Nu": "330-657-2752", "Jurisdicti": "Valley View", "Longitude": "81° 35' 35.50\" W", "Latitude": "41° 21' 7.97\" N" }, "geometry": { "type": "Point", "coordinates": [ -81.593198212999937, 41.352221971000063 ] } },
{ "type": "Feature", "properties": { "WKT": "POINT (-81.53810773899994 41.27673933300008)", "OBJECTID_1": "87", "OBJECTID": "87", "Name": "Brandywine Falls", "Address": "8176 Brandywine Road", "ZipCode": "44067.00000000000", "Use": "Wayside Area", "geom": "", "source": "CVNP", "steward": "CVNP", "Trail2": "", "Trail3": "", "Trail4": "", "Trail5": "", "Trail6": "", "park": "CVNP", "city": "Northfield Center", "county": "Summit", "state": "Ohio", "Trail1": "Wayside", "availabili": "Y", "availabi_1": "Y", "availabi_2": "N", "availabi_3": "Y", "Contact_Nu": "330-657-2752", "Jurisdicti": "Northfield Center", "Longitude": "81° 32' 17.17\" W", "Latitude": "41° 16' 36.23\" N" }, "geometry": { "type": "Point", "coordinates": [ -81.53810773899994, 41.27673933300008 ] } },
{ "type": "Feature", "properties": { "WKT": "POINT (-81.558354218999966 41.263158451000038)", "OBJECTID_1": "89", "OBJECTID": "89", "Name": "Boston Store on the Towpath", "Address": "1550 Boston Mills Road", "ZipCode": "44264.00000000000", "Use": "Trailhead", "geom": "", "source": "CVNP", "steward": "CVNP", "Trail2": "Buckeye Trail", "Trail3": "", "Trail4": "", "Trail5": "", "Trail6": "", "park": "CVNP", "city": "Boston Township", "county": "Summit", "state": "Ohio", "Trail1": "Ohio & Erie Canal Towpath Trail", "availabili": "Y", "availabi_1": "Y", "availabi_2": "Y", "availabi_3": "Y", "Contact_Nu": "330-657-2752", "Jurisdicti": "Boston Township", "Longitude": "81° 33' 30.06\" W", "Latitude": "41° 15' 47.34\" N" }, "geometry": { "type": "Point", "coordinates": [ -81.558354218999966, 41.263158451000038 ] } },
{ "type": "Feature", "properties": { "WKT": "POINT (-81.545569280999985 41.211918922000052)", "OBJECTID_1": "97", "OBJECTID": "97", "Name": "Wetmore Trailhead", "Address": "4653 Wetmore Road", "ZipCode": "44264.00000000000", "Use": "Trailhead", "geom": "", "source": "CVNP", "steward": "CVNP", "Trail2": "Butler Trail", "Trail3": "Langes Run Trail", "Trail4": "Valley Trail", "Trail5": "", "Trail6": "", "park": "CVNP", "city": "Boston Township", "county": "Summit", "state": "Ohio", "Trail1": "Wetmore Trail", "availabili": "Y", "availabi_1": "Y", "availabi_2": "N", "availabi_3": "Y", "Contact_Nu": "330-657-2752", "Jurisdicti": "Boston Township", "Longitude": "81° 32' 44.04\" W", "Latitude": "41° 12' 42.88\" N" }, "geometry": { "type": "Point", "coordinates": [ -81.545569280999985, 41.211918922000052 ] } },
{ "type": "Feature", "properties": { "WKT": "POINT (-81.510144732999933 41.223579805000043)", "OBJECTID_1": "101", "OBJECTID": "101", "Name": "Ledges Shelter and Trail", "Address": "405 Kendall Park Road", "ZipCode": "44264.00000000000", "Use": "Trailhead", "geom": "", "source": "CVNP", "steward": "CVNP", "Trail2": "", "Trail3": "", "Trail4": "", "Trail5": "", "Trail6": "", "park": "CVNP", "city": "Boston Township", "county": "Summit", "state": "Ohio", "Trail1": "Ledges Trail", "availabili": "Y", "availabi_1": "Y", "availabi_2": "Y", "availabi_3": "Y", "Contact_Nu": "330-657-2752", "Jurisdicti": "Boston Township", "Longitude": "81° 30' 36.51\" W", "Latitude": "41° 13' 24.86\" N" }, "geometry": { "type": "Point", "coordinates": [ -81.510144732999933, 41.223579805000043 ] } },
{ "type": "Feature", "properties": { "WKT": "POINT (-81.50843251699996 41.229960361000053)", "OBJECTID_1": "102", "OBJECTID": "102", "Name": "Haskell Run Trail\/ Happy Days South", "Address": "608 West Streetsboro Road", "ZipCode": "44264.00000000000", "Use": "Trailhead", "geom": "", "source": "CVNP", "steward": "CVNP", "Trail2": "Ledges Trail", "Trail3": "", "Trail4": "", "Trail5": "", "Trail6": "", "park": "CVNP", "city": "Boston Heights", "county": "Summit", "state": "Ohio", "Trail1": "Haskell Run Trail", "availabili": "Y", "availabi_1": "Y", "availabi_2": "N", "availabi_3": "N", "Contact_Nu": "330-657-2752", "Jurisdicti": "Boston Heights", "Longitude": "81° 30' 30.34\" W", "Latitude": "41° 13' 47.83\" N" }, "geometry": { "type": "Point", "coordinates": [ -81.50843251699996, 41.229960361000053 ] } },
{ "type": "Feature", "properties": { "WKT": "POINT (-81.529860696999947 41.211454328000059)", "OBJECTID_1": "108", "OBJECTID": "108", "Name": "Crowfoot Gully Picnic Area", "Address": "5365 Quick Road", "ZipCode": "44264.00000000000", "Use": "Trailhead", "geom": "", "source": "CVNP", "steward": "CVNP", "Trail2": "Cross Country Trail", "Trail3": "Lake Trail", "Trail4": "", "Trail5": "", "Trail6": "", "park": "CVNP", "city": "Boston Township", "county": "Summit", "state": "Ohio", "Trail1": "Salt Run Trail", "availabili": "Y", "availabi_1": "N", "availabi_2": "N", "availabi_3": "N", "Contact_Nu": "330-657-2752", "Jurisdicti": "Boston Township", "Longitude": "81° 31' 47.48\" W", "Latitude": "41° 12' 41.21\" N" }, "geometry": { "type": "Point", "coordinates": [ -81.529860696999947, 41.211454328000059 ] } },
{ "type": "Feature", "properties": { "WKT": "POINT (-81.578269381999974 41.194022394000058)", "OBJECTID_1": "110", "OBJECTID": "110", "Name": "Indigo Lake", "Address": "4300 Riverview Road", "ZipCode": "44264.00000000000", "Use": "Trailhead", "geom": "", "source": "CVNP", "steward": "CVNP", "Trail2": "Hale Farm Trail", "Trail3": "", "Trail4": "", "Trail5": "", "Trail6": "", "park": "CVNP", "city": "Cuyahoga Falls", "county": "Summit", "state": "Ohio", "Trail1": "Ohio & Erie Canal Towpath Trail", "availabili": "Y", "availabi_1": "Y", "availabi_2": "N", "availabi_3": "Y", "Contact_Nu": "330-657-2752", "Jurisdicti": "Cuyahoga Falls", "Longitude": "81° 34' 41.76\" W", "Latitude": "41° 11' 38.45\" N" }, "geometry": { "type": "Point", "coordinates": [ -81.578269381999974, 41.194022394000058 ] } },
{ "type": "Feature", "properties": { "WKT": "POINT (-81.581071443999974 41.204194149000045)", "OBJECTID_1": "146", "OBJECTID": "146", "Name": "Everett Road Covered Bridge", "Address": "2370 Everett Road", "ZipCode": "44264.00000000000", "Use": "Trailhead", "geom": "", "source": "CVNP", "steward": "CVNP", "Trail2": "Perkins Trail", "Trail3": "Valley Trail", "Trail4": "Covered Bridge Trail", "Trail5": "Furnace Run Trail", "Trail6": "Ohio & Erie Canal Towpath Trail", "park": "CVNP", "city": "Boston Township", "county": "Summit", "state": "Ohio", "Trail1": "Riding Run Trail", "availabili": "Y", "availabi_1": "Y", "availabi_2": "N", "availabi_3": "Y", "Contact_Nu": "330-657-2752", "Jurisdicti": "Boston Township", "Longitude": "81° 34' 51.84\" W", "Latitude": "41° 12' 15.07\" N" }, "geometry": { "type": "Point", "coordinates": [ -81.581071443999974, 41.204194149000045 ] } },
{ "type": "Feature", "properties": { "WKT": "POINT (-81.597383984999965 41.357059412000069)", "OBJECTID_1": "153", "OBJECTID": "153", "Name": "Fitzwater Trailhead", "Address": "7600 Fitzwater Road", "ZipCode": "44125.00000000000", "Use": "Trailhead", "geom": "", "source": "CVNP", "steward": "CVNP", "Trail2": "", "Trail3": "", "Trail4": "", "Trail5": "", "Trail6": "", "park": "CVNP", "city": "Valley View", "county": "Cuyahoga", "state": "Ohio", "Trail1": "Ohio & Erie Canal Towpath Trail", "availabili": "Y", "availabi_1": "N", "availabi_2": "N", "availabi_3": "N", "Contact_Nu": "330-657-2752", "Jurisdicti": "Valley View", "Longitude": "81° 35' 50.57\" W", "Latitude": "41° 21' 25.38\" N" }, "geometry": { "type": "Point", "coordinates": [ -81.597383984999965, 41.357059412000069 ] } },
{ "type": "Feature", "properties": { "WKT": "POINT (-81.55703985599996 41.270484414000066)", "OBJECTID_1": "157", "OBJECTID": "157", "Name": "Stanford House and Trailhead", "Address": "6093 Stanford Road", "ZipCode": "44264.00000000000", "Use": "Trailhead", "geom": "", "source": "CVNP", "steward": "CVNP", "Trail2": "Stanford Trail", "Trail3": "", "Trail4": "", "Trail5": "", "Trail6": "", "park": "CVNP", "city": "Boston Township", "county": "Summit", "state": "Ohio", "Trail1": "Ohio & Erie Canal Towpath Trail", "availabili": "Y", "availabi_1": "Y", "availabi_2": "N", "availabi_3": "N", "Contact_Nu": "330-657-2752", "Jurisdicti": "Boston Township", "Longitude": "81° 33' 25.33\" W", "Latitude": "41° 16' 13.71\" N" }, "geometry": { "type": "Point", "coordinates": [ -81.55703985599996, 41.270484414000066 ] } },
{ "type": "Feature", "properties": { "WKT": "POINT (-81.572205314999962 41.200701886000047)", "OBJECTID_1": "160", "OBJECTID": "160", "Name": "Hunt Farm on the Towpath", "Address": "2045 Bolanz Road", "ZipCode": "44264.00000000000", "Use": "Trailhead", "geom": "", "source": "CVNP", "steward": "CVNP", "Trail2": "Vallley Trail", "Trail3": "", "Trail4": "", "Trail5": "", "Trail6": "", "park": "CVNP", "city": "Cuyahoga Falls", "county": "Summit", "state": "Ohio", "Trail1": "Ohio & Erie Canal Towpath Trail", "availabili": "Y", "availabi_1": "Y", "availabi_2": "Y", "availabi_3": "Y", "Contact_Nu": "330-657-2752", "Jurisdicti": "Cuyahoga Falls", "Longitude": "81° 34' 19.93\" W", "Latitude": "41° 12' 2.50\" N" }, "geometry": { "type": "Point", "coordinates": [ -81.572205314999962, 41.200701886000047 ] } },
{ "type": "Feature", "properties": { "WKT": "POINT (-81.57257825399995 41.257113563000075)", "OBJECTID_1": "163", "OBJECTID": "163", "Name": "Blue Hen Falls Trailhead", "Address": "2001 Boston Millss Road", "ZipCode": "44264.00000000000", "Use": "Trailhead", "geom": "", "source": "CVNP", "steward": "CVNP", "Trail2": "Blue Hen Falls Trail", "Trail3": "", "Trail4": "", "Trail5": "", "Trail6": "", "park": "CVNP", "city": "Peninsula", "county": "Summit", "state": "Ohio", "Trail1": "Buckeye Trail", "availabili": "Y", "availabi_1": "Y", "availabi_2": "N", "availabi_3": "N", "Contact_Nu": "330-657-2752", "Jurisdicti": "Peninsula", "Longitude": "81° 34' 21.27\" W", "Latitude": "41° 15' 25.58\" N" }, "geometry": { "type": "Point", "coordinates": [ -81.57257825399995, 41.257113563000075 ] } },
{ "type": "Feature", "properties": { "WKT": "POINT (-81.55718073099996 41.263049301000081)", "OBJECTID_1": "164", "OBJECTID": "129", "Name": "Boston Trailhead", "Address": "1508 Boston Mills Road", "ZipCode": "44264.00000000000", "Use": "Trailhead", "geom": "", "source": "CVNP", "steward": "CVNP", "Trail2": "Buckeye Trail", "Trail3": "Valley Trail", "Trail4": "", "Trail5": "", "Trail6": "", "park": "CVNP", "city": "Boston Township", "county": "Summit", "state": "Ohio", "Trail1": "Ohio & Erie Canal Towpath Trail", "availabili": "Y", "availabi_1": "Y", "availabi_2": "N", "availabi_3": "N", "Contact_Nu": "", "Jurisdicti": "", "Longitude": "81° 33' 25.84\" W", "Latitude": "41° 15' 46.95\" N" }, "geometry": { "type": "Point", "coordinates": [ -81.55718073099996, 41.263049301000081 ] } }
]
}
