{
"type": "FeatureCollection",
"crs": { "type": "name", "properties": { "name": "urn:ogc:def:crs:OGC:1.3:CRS84" } },
                                                                                
"features": [
{ "type": "Feature", "properties": { "WKT": "POINT (-81.630857108566332 41.392676042071464)", "OBJECTID_1": "1", "Name": "Rockside Station", "geom": "Point", "source": "NPS", "steward": "NPS", "Trail2": "", "Trail3": "", "Trail4": "", "Trail5": "", "Trail6": "", "park": "CVNP", "city": "Independence", "county": "Summit", "state": "Ohio", "Trail1": "Ohio & Erie Canal Towpath Trail", "drinkwater": "y", "restrooms": "y", "parking": "y", "kiosk": "y", "ContactNum": "330-657-2752" }, "geometry": { "type": "Point", "coordinates": [ -81.630857108566332, 41.392676042071464 ] } },
{ "type": "Feature", "properties": { "WKT": "POINT (-81.628401449359458 41.392752682975072)", "OBJECTID_1": "2", "Name": "Lock 39 Trailhead", "geom": "Point", "source": "NPS", "steward": "NPS", "Trail2": "", "Trail3": "", "Trail4": "", "Trail5": "", "Trail6": "", "park": "CVNP", "city": "Valley View", "county": "Cuyahoga", "state": "Ohio", "Trail1": "Ohio & Erie Canal Towpath Trail", "drinkwater": "y", "restrooms": "y", "parking": "y", "kiosk": "y", "ContactNum": "330-657-2752" }, "geometry": { "type": "Point", "coordinates": [ -81.628401449359458, 41.392752682975072 ] } },
{ "type": "Feature", "properties": { "WKT": "POINT (-81.588067678530024 41.31902902485708)", "OBJECTID_1": "6", "Name": "Brecksville Station", "geom": "Point", "source": "NPS", "steward": "NPS", "Trail2": "Buckeye Trail", "Trail3": "Valley Trail", "Trail4": "", "Trail5": "", "Trail6": "", "park": "CVNP", "city": "Brecksville", "county": "Summit", "state": "Ohio", "Trail1": "Ohio & Erie Canal Towpath Trail", "drinkwater": "y", "restrooms": "y", "parking": "y", "kiosk": "y", "ContactNum": "330-657-2752" }, "geometry": { "type": "Point", "coordinates": [ -81.58806767853001, 41.319029024857073 ] } },
{ "type": "Feature", "properties": { "WKT": "POINT (-81.540117364871378 41.276781590870847)", "OBJECTID_1": "8", "Name": "Brandywine Falls", "geom": "Point", "source": "NPS", "steward": "NPS", "Trail2": "Bike and Hike Trail", "Trail3": "Stanford Trail", "Trail4": "Brandywine Gorge Trail", "Trail5": "", "Trail6": "", "park": "CVNP", "city": "Northfield Center", "county": "Summit", "state": "Ohio", "Trail1": "Brandywine Falls Boardwalk", "drinkwater": "n", "restrooms": "y", "parking": "y", "kiosk": "y", "ContactNum": "330-657-2752" }, "geometry": { "type": "Point", "coordinates": [ -81.540117364871378, 41.276781590870847 ] } },
{ "type": "Feature", "properties": { "WKT": "POINT (-81.571731183059214 41.28862234211995)", "OBJECTID_1": "9", "Name": "Jaite Trailhead", "geom": "Point", "source": "NPS", "steward": "NPS", "Trail2": "Ohio & Erie Canal Towpath Trail", "Trail3": "Valley Trail", "Trail4": "", "Trail5": "", "Trail6": "", "park": "CVNP", "city": "Brecksville", "county": "Summit", "state": "Ohio", "Trail1": "Buckeye Trail", "drinkwater": "n", "restrooms": "n", "parking": "y", "kiosk": "n", "ContactNum": "330-657-2752" }, "geometry": { "type": "Point", "coordinates": [ -81.571731183059214, 41.288622342119943 ] } },
{ "type": "Feature", "properties": { "WKT": "POINT (-81.564769145208686 41.289413015109496)", "OBJECTID_1": "10", "Name": "Red Lock Trailhead", "geom": "Point", "source": "NPS", "steward": "NPS", "Trail2": "Old Carriage Trail", "Trail3": "", "Trail4": "", "Trail5": "", "Trail6": "", "park": "CVNP", "city": "Northfield", "county": "Summit", "state": "Ohio", "Trail1": "Ohio & Erie Canal Towpath Trail", "drinkwater": "n", "restrooms": "y", "parking": "y", "kiosk": "y", "ContactNum": "330-657-2752" }, "geometry": { "type": "Point", "coordinates": [ -81.564769145208686, 41.289413015109496 ] } },
{ "type": "Feature", "properties": { "WKT": "POINT (-81.561133877991779 41.262900603646429)", "OBJECTID_1": "12", "Name": "Boston Mill Station", "geom": "Point", "source": "NPS", "steward": "NPS", "Trail2": "Buckeye Trail", "Trail3": "Valley Trail", "Trail4": "", "Trail5": "", "Trail6": "", "park": "CVNP", "city": "Boston Township", "county": "Summit", "state": "Ohio", "Trail1": "Ohio & Erie Canal Towpath Trail", "drinkwater": "n", "restrooms": "y", "parking": "y", "kiosk": "y", "ContactNum": "330-657-2752" }, "geometry": { "type": "Point", "coordinates": [ -81.561133877991779, 41.262900603646429 ] } },
{ "type": "Feature", "properties": { "WKT": "POINT (-81.518880078019535 41.2550175642331)", "OBJECTID_1": "16", "Name": "Bike and Hike Trailhead", "geom": "Point", "source": "NPS", "steward": "NPS", "Trail2": "", "Trail3": "", "Trail4": "", "Trail5": "", "Trail6": "", "park": "CVNP", "city": "Boston Heights", "county": "Summit", "state": "Ohio", "Trail1": "Bike and Hike Trail", "drinkwater": "n", "restrooms": "n", "parking": "y", "kiosk": "y", "ContactNum": "330-657-2752" }, "geometry": { "type": "Point", "coordinates": [ -81.518880078019535, 41.2550175642331 ] } },
{ "type": "Feature", "properties": { "WKT": "POINT (-81.507118897352711 41.231974161804231)", "OBJECTID_1": "17", "Name": "Happy Days Lodge", "geom": "Point", "source": "NPS", "steward": "NPS", "Trail2": "Haskell Run Trail", "Trail3": "Ledges Trail", "Trail4": "", "Trail5": "", "Trail6": "", "park": "CVNP", "city": "Boston Heights", "county": "Summit", "state": "Ohio", "Trail1": "Boston Run Trail", "drinkwater": "n", "restrooms": "y", "parking": "y", "kiosk": "y", "ContactNum": "330-657-2752" }, "geometry": { "type": "Point", "coordinates": [ -81.507118897352711, 41.231974161804231 ] } },
{ "type": "Feature", "properties": { "WKT": "POINT (-81.513623786253063 41.226004660211231)", "OBJECTID_1": "22", "Name": "Octagon", "geom": "Point", "source": "NPS", "steward": "NPS", "Trail2": "Pine Grove Trail", "Trail3": "Ledges Trail", "Trail4": "", "Trail5": "", "Trail6": "", "park": "CVNP", "city": "Boston Township", "county": "Summit", "state": "Ohio", "Trail1": "Forest Point Trail", "drinkwater": "n", "restrooms": "y", "parking": "y", "kiosk": "y", "ContactNum": "330-657-2752" }, "geometry": { "type": "Point", "coordinates": [ -81.513623786253063, 41.226004660211231 ] } },
{ "type": "Feature", "properties": { "WKT": "POINT (-81.538682155813817 41.239349980372758)", "OBJECTID_1": "23", "Name": "Pine Lane Trailhead", "geom": "Point", "source": "NPS", "steward": "NPS", "Trail2": "Valley Trail", "Trail3": "", "Trail4": "", "Trail5": "", "Trail6": "", "park": "CVNP", "city": "Peninsula", "county": "Summit", "state": "Ohio", "Trail1": "Buckeye Trail", "drinkwater": "n", "restrooms": "y", "parking": "y", "kiosk": "y", "ContactNum": "330-657-2752" }, "geometry": { "type": "Point", "coordinates": [ -81.538682155813817, 41.239349980372758 ] } },
{ "type": "Feature", "properties": { "WKT": "POINT (-81.587881810833395 41.318729579252164)", "OBJECTID_1": "25", "Name": "Station Road Bridge Trailhead", "geom": "Point", "source": "NPS", "steward": "NPS", "Trail2": "Buckeye Trail", "Trail3": "Valley Trail", "Trail4": "", "Trail5": "", "Trail6": "", "park": "CVNP", "city": "Brecksville", "county": "Cuyahoga", "state": "Ohio", "Trail1": "Ohio & Erie Canal Towpath Trail", "drinkwater": "y", "restrooms": "y", "parking": "y", "kiosk": "y", "ContactNum": "330-657-2752" }, "geometry": { "type": "Point", "coordinates": [ -81.587881810833395, 41.318729579252164 ] } },
{ "type": "Feature", "properties": { "WKT": "POINT (-81.550358561304662 41.243144742577428)", "OBJECTID_1": "26", "Name": "Lock 29 Trailhead", "geom": "Point", "source": "NPS", "steward": "NPS", "Trail2": "Buckeye Trail", "Trail3": "", "Trail4": "", "Trail5": "", "Trail6": "", "park": "CVNP", "city": "Peninsula", "county": "Summit", "state": "Ohio", "Trail1": "Ohio & Erie Canal Towpath Trail", "drinkwater": "y", "restrooms": "y", "parking": "y", "kiosk": "y", "ContactNum": "330-657-2752" }, "geometry": { "type": "Point", "coordinates": [ -81.550358561304662, 41.243144742577421 ] } },
{ "type": "Feature", "properties": { "WKT": "POINT (-81.549109151566512 41.242247020381811)", "OBJECTID_1": "27", "Name": "Peninsula Depot", "geom": "Point", "source": "NPS", "steward": "NPS", "Trail2": "", "Trail3": "", "Trail4": "", "Trail5": "", "Trail6": "", "park": "CVNP", "city": "Peninsula", "county": "Summit", "state": "Ohio", "Trail1": "Ohio & Erie Canal Towpath Trail", "drinkwater": "n", "restrooms": "y", "parking": "y", "kiosk": "y", "ContactNum": "330-657-2752" }, "geometry": { "type": "Point", "coordinates": [ -81.549109151566512, 41.242247020381811 ] } },
{ "type": "Feature", "properties": { "WKT": "POINT (-81.57935834580762 41.193899302422736)", "OBJECTID_1": "30", "Name": "Indigo Lake Station", "geom": "Point", "source": "NPS", "steward": "NPS", "Trail2": "Hale Farm Connector", "Trail3": "", "Trail4": "", "Trail5": "", "Trail6": "", "park": "CVNP", "city": "Cuyahoga Falls", "county": "Summit", "state": "Ohio", "Trail1": "Ohio & Erie Canal Towpath Trail", "drinkwater": "n", "restrooms": "y", "parking": "y", "kiosk": "y", "ContactNum": "330-657-2752" }, "geometry": { "type": "Point", "coordinates": [ -81.57935834580762, 41.193899302422729 ] } },
{ "type": "Feature", "properties": { "WKT": "POINT (-81.576056188259997 41.219543226328632)", "OBJECTID_1": "33", "Name": "Oak Hill Trailhead", "geom": "Point", "source": "NPS", "steward": "NPS", "Trail2": "Plateau Trail", "Trail3": "Hemlock Trail", "Trail4": "", "Trail5": "", "Trail6": "", "park": "CVNP", "city": "Boston Township", "county": "Summit", "state": "Ohio", "Trail1": "Oak Hill Trail", "drinkwater": "n", "restrooms": "y", "parking": "y", "kiosk": "y", "ContactNum": "330-657-2752" }, "geometry": { "type": "Point", "coordinates": [ -81.576056188259997, 41.219543226328632 ] } },
{ "type": "Feature", "properties": { "WKT": "POINT (-81.574353061205869 41.159054276123719)", "OBJECTID_1": "35", "Name": "Botzum Trailhead", "geom": "Point", "source": "NPS", "steward": "NPS", "Trail2": "Buckeye Trail", "Trail3": "", "Trail4": "", "Trail5": "", "Trail6": "", "park": "CVNP", "city": "Akron", "county": "Summit", "state": "Ohio", "Trail1": "Ohio & Erie Canal Towpath Trail", "drinkwater": "n", "restrooms": "y", "parking": "y", "kiosk": "y", "ContactNum": "330-657-2752" }, "geometry": { "type": "Point", "coordinates": [ -81.574353061205869, 41.159054276123712 ] } },
{ "type": "Feature", "properties": { "WKT": "POINT (-81.582005247995923 41.183750421331894)", "OBJECTID_1": "37", "Name": "Ira Trailhead", "geom": "Point", "source": "NPS", "steward": "NPS", "Trail2": "Buckeye Trail", "Trail3": "", "Trail4": "", "Trail5": "", "Trail6": "", "park": "CVNP", "city": "Cuyahoga Falls", "county": "Summit", "state": "Ohio", "Trail1": "Ohio & Erie Canal Towpath Trail", "drinkwater": "n", "restrooms": "y", "parking": "y", "kiosk": "y", "ContactNum": "330-657-2752" }, "geometry": { "type": "Point", "coordinates": [ -81.582005247995923, 41.183750421331894 ] } },
{ "type": "Feature", "properties": { "WKT": "POINT (-81.53191682931309 41.214861891051811)", "OBJECTID_1": "40", "Name": "Pine Hollow", "geom": "Point", "source": "NPS", "steward": "NPS", "Trail2": "Salt Run Trail", "Trail3": "Lake Trail", "Trail4": "", "Trail5": "", "Trail6": "", "park": "CVNP", "city": "Boston Township", "county": "Summit", "state": "Ohio", "Trail1": "Cross Country Trail", "drinkwater": "y", "restrooms": "y", "parking": "y", "kiosk": "y", "ContactNum": "330-657-2752" }, "geometry": { "type": "Point", "coordinates": [ -81.53191682931309, 41.214861891051811 ] } },
{ "type": "Feature", "properties": { "WKT": "POINT (-81.526326663104882 41.20911351045816)", "OBJECTID_1": "42", "Name": "Little Meadow", "geom": "Point", "source": "NPS", "steward": "NPS", "Trail2": "Salt Run Trail", "Trail3": "Lake Trail", "Trail4": "", "Trail5": "", "Trail6": "", "park": "CVNP", "city": "Boston Township", "county": "Summit", "state": "Ohio", "Trail1": "Cross Country Trail", "drinkwater": "n", "restrooms": "n", "parking": "y", "kiosk": "y", "ContactNum": "330-657-2752" }, "geometry": { "type": "Point", "coordinates": [ -81.526326663104882, 41.209113510458153 ] } },
{ "type": "Feature", "properties": { "WKT": "POINT (-81.569266716849413 41.233450085349666)", "OBJECTID_1": "46", "Name": "Horseshoe Pond", "geom": "Point", "source": "NPS", "steward": "NPS", "Trail2": "", "Trail3": "", "Trail4": "", "Trail5": "", "Trail6": "", "park": "CVNP", "city": "Boston Township", "county": "Summit", "state": "Ohio", "Trail1": "Tree Farm Trail", "drinkwater": "n", "restrooms": "y", "parking": "y", "kiosk": "y", "ContactNum": "330-657-2752" }, "geometry": { "type": "Point", "coordinates": [ -81.569266716849413, 41.233450085349666 ] } },
{ "type": "Feature", "properties": { "WKT": "POINT (-81.616281725624759 41.373268498911571)", "OBJECTID_1": "63", "Name": "Canal Visitor Center Station", "geom": "Point", "source": "NPS", "steward": "NPS", "Trail2": "", "Trail3": "", "Trail4": "", "Trail5": "", "Trail6": "", "park": "CVNP", "city": "Valley View", "county": "Summit", "state": "Ohio", "Trail1": "Ohio & Erie Canal Towpath Trail", "drinkwater": "y", "restrooms": "y", "parking": "y", "kiosk": "y", "ContactNum": "330-657-2752" }, "geometry": { "type": "Point", "coordinates": [ -81.616281725624759, 41.373268498911571 ] } },
{ "type": "Feature", "properties": { "WKT": "POINT (-81.575340051978742 41.159524818652287)", "OBJECTID_1": "66", "Name": "Botzum Station", "geom": "Point", "source": "NPS", "steward": "NPS", "Trail2": "Buckeye Trail", "Trail3": "", "Trail4": "", "Trail5": "", "Trail6": "", "park": "CVNP", "city": "Akron", "county": "Summit", "state": "Ohio", "Trail1": "Ohio & Erie Canal Towpath Trail", "drinkwater": "n", "restrooms": "y", "parking": "y", "kiosk": "y", "ContactNum": "330-657-2752" }, "geometry": { "type": "Point", "coordinates": [ -81.575340051978742, 41.15952481865228 ] } },
{ "type": "Feature", "properties": { "WKT": "POINT (-81.524894820408022 41.217477936114982)", "OBJECTID_1": "70", "Name": "Kendall Lake", "geom": "Point", "source": "NPS", "steward": "NPS", "Trail2": "Cross Country Trail", "Trail3": "Salt Run Trail", "Trail4": "Pine Grove Trail", "Trail5": "", "Trail6": "", "park": "CVNP", "city": "Boston Township", "county": "Summit", "state": "Ohio", "Trail1": "Lake Trail", "drinkwater": "y", "restrooms": "y", "parking": "y", "kiosk": "y", "ContactNum": "330-657-2752" }, "geometry": { "type": "Point", "coordinates": [ -81.524894820408022, 41.217477936114982 ] } },
{ "type": "Feature", "properties": { "WKT": "POINT (-81.613460986279094 41.37259077419354)", "OBJECTID_1": "75", "Name": "Canal Visitor Center", "geom": "Point", "source": "NPS", "steward": "NPS", "Trail2": "", "Trail3": "", "Trail4": "", "Trail5": "", "Trail6": "", "park": "CVNP", "city": "Valley View", "county": "Cuyahoga", "state": "Ohio", "Trail1": "Ohio & Erie Canal Towpath Trail", "drinkwater": "y", "restrooms": "y", "parking": "y", "kiosk": "y", "ContactNum": "330-657-2752" }, "geometry": { "type": "Point", "coordinates": [ -81.613460986279094, 41.37259077419354 ] } },
{ "type": "Feature", "properties": { "WKT": "POINT (-81.593194331576015 41.352213902325268)", "OBJECTID_1": "78", "Name": "Frazee House Trailhead", "geom": "Point", "source": "NPS", "steward": "NPS", "Trail2": "Buckeye Trail", "Trail3": "Valley Trail", "Trail4": "", "Trail5": "", "Trail6": "", "park": "CVNP", "city": "Valley View", "county": "Cuyahoga", "state": "Ohio", "Trail1": "Ohio & Erie Canal Towpath Trail", "drinkwater": "n", "restrooms": "y", "parking": "y", "kiosk": "y", "ContactNum": "330-657-2752" }, "geometry": { "type": "Point", "coordinates": [ -81.593194331576015, 41.352213902325268 ] } },
{ "type": "Feature", "properties": { "WKT": "POINT (-81.540209029820772 41.276289724118449)", "OBJECTID_1": "87", "Name": "Brandywine Falls", "geom": "Point", "source": "NPS", "steward": "NPS", "Trail2": "", "Trail3": "", "Trail4": "", "Trail5": "", "Trail6": "", "park": "CVNP", "city": "Northfield Center", "county": "Summit", "state": "Ohio", "Trail1": "Wayside", "drinkwater": "n", "restrooms": "y", "parking": "y", "kiosk": "y", "ContactNum": "330-657-2752" }, "geometry": { "type": "Point", "coordinates": [ -81.540209029820772, 41.276289724118449 ] } },
{ "type": "Feature", "properties": { "WKT": "POINT (-81.55835035608915 41.263150397710881)", "OBJECTID_1": "89", "Name": "Boston Store Visitor Center", "geom": "Point", "source": "NPS", "steward": "NPS", "Trail2": "Buckeye Trail", "Trail3": "Valley Trail", "Trail4": "", "Trail5": "", "Trail6": "", "park": "CVNP", "city": "Boston Township", "county": "Summit", "state": "Ohio", "Trail1": "Ohio & Erie Canal Towpath Trail", "drinkwater": "y", "restrooms": "y", "parking": "y", "kiosk": "y", "ContactNum": "330-657-2752" }, "geometry": { "type": "Point", "coordinates": [ -81.55835035608915, 41.263150397710881 ] } },
{ "type": "Feature", "properties": { "WKT": "POINT (-81.545565425562557 41.211910877021523)", "OBJECTID_1": "97", "Name": "Wetmore Trailhead", "geom": "Point", "source": "NPS", "steward": "NPS", "Trail2": "Valley Trail", "Trail3": "Langes Run Trail", "Trail4": "Butler Trail", "Trail5": "", "Trail6": "", "park": "CVNP", "city": "Boston Township", "county": "Summit", "state": "Ohio", "Trail1": "Wetmore Trail", "drinkwater": "n", "restrooms": "y", "parking": "y", "kiosk": "y", "ContactNum": "330-657-2752" }, "geometry": { "type": "Point", "coordinates": [ -81.545565425562557, 41.211910877021523 ] } },
{ "type": "Feature", "properties": { "WKT": "POINT (-81.510140888239434 41.223571756890678)", "OBJECTID_1": "101", "Name": "Ledges", "geom": "Point", "source": "NPS", "steward": "NPS", "Trail2": "Hakell Run Trail", "Trail3": "Pine Grove Trail", "Trail4": "", "Trail5": "", "Trail6": "", "park": "CVNP", "city": "Boston Township", "county": "Summit", "state": "Ohio", "Trail1": "Ledges Trail", "drinkwater": "y", "restrooms": "y", "parking": "y", "kiosk": "y", "ContactNum": "330-657-2752" }, "geometry": { "type": "Point", "coordinates": [ -81.510140888239434, 41.223571756890678 ] } },
{ "type": "Feature", "properties": { "WKT": "POINT (-81.508428671693693 41.229952310963)", "OBJECTID_1": "102", "Name": "Happy Days Lodge (accessible parking)", "geom": "Point", "source": "NPS", "steward": "NPS", "Trail2": "Ledges Trail", "Trail3": "", "Trail4": "", "Trail5": "", "Trail6": "", "park": "CVNP", "city": "Boston Heights", "county": "Summit", "state": "Ohio", "Trail1": "Haskell Run Trail", "drinkwater": "n", "restrooms": "n", "parking": "y", "kiosk": "y", "ContactNum": "330-657-2752" }, "geometry": { "type": "Point", "coordinates": [ -81.508428671693693, 41.229952310963 ] } },
{ "type": "Feature", "properties": { "WKT": "POINT (-81.529856847325817 41.211446282304983)", "OBJECTID_1": "108", "Name": "Crow Foot Gully", "geom": "Point", "source": "NPS", "steward": "NPS", "Trail2": "Salt Run Trail", "Trail3": "Lake Trail", "Trail4": "", "Trail5": "", "Trail6": "", "park": "CVNP", "city": "Boston Township", "county": "Summit", "state": "Ohio", "Trail1": "Cross Country Trail", "drinkwater": "n", "restrooms": "n", "parking": "y", "kiosk": "n", "ContactNum": "330-657-2752" }, "geometry": { "type": "Point", "coordinates": [ -81.529856847325803, 41.211446282304976 ] } },
{ "type": "Feature", "properties": { "WKT": "POINT (-81.578265517884134 41.194014353772026)", "OBJECTID_1": "110", "Name": "Indigo Lake", "geom": "Point", "source": "NPS", "steward": "NPS", "Trail2": "Hale Farm Connector", "Trail3": "", "Trail4": "", "Trail5": "", "Trail6": "", "park": "CVNP", "city": "Cuyahoga Falls", "county": "Summit", "state": "Ohio", "Trail1": "Ohio & Erie Canal Towpath Trail", "drinkwater": "n", "restrooms": "y", "parking": "y", "kiosk": "y", "ContactNum": "330-657-2752" }, "geometry": { "type": "Point", "coordinates": [ -81.57826551788412, 41.194014353772026 ] } },
{ "type": "Feature", "properties": { "WKT": "POINT (-81.581067578529371 41.2041861074187)", "OBJECTID_1": "146", "Name": "Everett Covered Bridge", "geom": "Point", "source": "NPS", "steward": "NPS", "Trail2": "Riding Run Trail", "Trail3": "Perkins Trail", "Trail4": "Furnace Run Trail", "Trail5": "", "Trail6": "", "park": "CVNP", "city": "Boston Township", "county": "Summit", "state": "Ohio", "Trail1": "Valley Trail", "drinkwater": "n", "restrooms": "y", "parking": "y", "kiosk": "y", "ContactNum": "330-657-2752" }, "geometry": { "type": "Point", "coordinates": [ -81.581067578529357, 41.204186107418693 ] } },
{ "type": "Feature", "properties": { "WKT": "POINT (-81.597380102456725 41.35705134309169)", "OBJECTID_1": "153", "Name": "Fitzwater Trailhead", "geom": "Point", "source": "NPS", "steward": "NPS", "Trail2": "", "Trail3": "", "Trail4": "", "Trail5": "", "Trail6": "", "park": "CVNP", "city": "Valley View", "county": "Cuyahoga", "state": "Ohio", "Trail1": "Ohio & Erie Canal Towpath Trail", "drinkwater": "n", "restrooms": "n", "parking": "y", "kiosk": "n", "ContactNum": "330-657-2752" }, "geometry": { "type": "Point", "coordinates": [ -81.597380102456725, 41.35705134309169 ] } },
{ "type": "Feature", "properties": { "WKT": "POINT (-81.555880388140821 41.271060314992795)", "OBJECTID_1": "157", "Name": "Stanford House", "geom": "Point", "source": "NPS", "steward": "NPS", "Trail2": "Stanford Connector", "Trail3": "Stanford Trail", "Trail4": "", "Trail5": "", "Trail6": "", "park": "CVNP", "city": "Boston Township", "county": "Summit", "state": "Ohio", "Trail1": "Ohio & Erie Canal Towpath Trail", "drinkwater": "n", "restrooms": "n", "parking": "y", "kiosk": "y", "ContactNum": "330-657-2752" }, "geometry": { "type": "Point", "coordinates": [ -81.555880388140821, 41.271060314992795 ] } },
{ "type": "Feature", "properties": { "WKT": "POINT (-81.572201452676282 41.200693844188358)", "OBJECTID_1": "160", "Name": "Hunt Farm Visitor Information Center", "geom": "Point", "source": "NPS", "steward": "NPS", "Trail2": "Buckeye Trail", "Trail3": "Valley Trail", "Trail4": "", "Trail5": "", "Trail6": "", "park": "CVNP", "city": "Cuyahoga Falls", "county": "Summit", "state": "Ohio", "Trail1": "Ohio & Erie Canal Towpath Trail", "drinkwater": "y", "restrooms": "y", "parking": "y", "kiosk": "y", "ContactNum": "330-657-2752" }, "geometry": { "type": "Point", "coordinates": [ -81.572201452676282, 41.200693844188358 ] } },
{ "type": "Feature", "properties": { "WKT": "POINT (-81.572574387261312 41.257105510985838)", "OBJECTID_1": "163", "Name": "Blue Hen Falls", "geom": "Point", "source": "NPS", "steward": "NPS", "Trail2": "Buckeye Trail", "Trail3": "", "Trail4": "", "Trail5": "", "Trail6": "", "park": "CVNP", "city": "Peninsula", "county": "Summit", "state": "Ohio", "Trail1": "Blue Hen Falls Trail", "drinkwater": "n", "restrooms": "n", "parking": "y", "kiosk": "y", "ContactNum": "330-657-2752" }, "geometry": { "type": "Point", "coordinates": [ -81.572574387261298, 41.257105510985838 ] } },
{ "type": "Feature", "properties": { "WKT": "POINT (-81.557176867952919 41.263041247587502)", "OBJECTID_1": "164", "Name": "Boston Trailhead", "geom": "Point", "source": "NPS", "steward": "NPS", "Trail2": "Ohio & Erie Canal Towpath Trail", "Trail3": "Buckeye Trail", "Trail4": "", "Trail5": "", "Trail6": "", "park": "CVNP", "city": "Boston Township", "county": "Summit", "state": "Ohio", "Trail1": "Valley Trail", "drinkwater": "n", "restrooms": "n", "parking": "y", "kiosk": "y", "ContactNum": "303-657-2752" }, "geometry": { "type": "Point", "coordinates": [ -81.557176867952919, 41.263041247587502 ] } },
{ "type": "Feature", "properties": { "WKT": "POINT (-81.515643184383066 41.204727986334959)", "OBJECTID_1": "165", "Name": "Armington Pond", "geom": "Point", "source": "NPS", "steward": "NPS", "Trail2": "Lake Trail", "Trail3": "", "Trail4": "", "Trail5": "", "Trail6": "", "park": "CVNP", "city": "Boston Township", "county": "Summit", "state": "Ohio", "Trail1": "Cross Country Trail", "drinkwater": "n", "restrooms": "n", "parking": "y", "kiosk": "n", "ContactNum": "330-657-2752" }, "geometry": { "type": "Point", "coordinates": [ -81.515643184383066, 41.204727986334959 ] } },
{ "type": "Feature", "properties": { "WKT": "POINT (-81.558097930300448 41.224583379662946)", "OBJECTID_1": "166", "Name": "Valley Picnic Area", "geom": "Point", "source": "NPS", "steward": "NPS", "Trail2": "Oak Hill Trail", "Trail3": "Hemlock Trail", "Trail4": "", "Trail5": "", "Trail6": "", "park": "CVNP", "city": "Peninsula", "county": "Summit", "state": "Ohio", "Trail1": "Plateau Trail", "drinkwater": "n", "restrooms": "n", "parking": "y", "kiosk": "n", "ContactNum": "303-657-2752" }, "geometry": { "type": "Point", "coordinates": [ -81.558097930300434, 41.224583379662946 ] } },
{ "type": "Feature", "properties": { "WKT": "POINT (-81.514697471233475 41.089118015517585)", "OBJECTID_1": "168", "Name": "Akron Northside Station", "geom": "Point", "source": "NPS", "steward": "NPS", "Trail2": "", "Trail3": "", "Trail4": "", "Trail5": "", "Trail6": "", "park": "CVNP", "city": "Akron", "county": "Summit", "state": "Ohio", "Trail1": "Ohio & Erie Canal Towpath Trail", "drinkwater": "n", "restrooms": "y", "parking": "y", "kiosk": "y", "ContactNum": "330-657-2752" }, "geometry": { "type": "Point", "coordinates": [ -81.514697471233475, 41.089118015517585 ] } }
]
}
