{
"type": "FeatureCollection",
"crs": { "type": "name", "properties": { "name": "urn:ogc:def:crs:OGC:1.3:CRS84" } },
                                                                                
"features": [
{ "type": "Feature", "properties": { "WKT": "POINT (-81.398668601628543 41.306368202520794)", "ID": "0", "NAME": "Pond Brook", "TRAIL1": "Buttonbush Trail", "TRAIL2": "", "TRAIL3": "", "SOURCE": "MPSSC", "PARKING": "yes", "KIOSK": "yes", "DRINKING_W": "no", "RESTROOM": "yes", "PARK": "Liberty Park", "CONTACT_NU": "330-867-5511", "ADDRESS": "3973 East Aurora Road", "ZIPCODE": "44087", "TRAIL4": "", "TRAIL5": "", "TRAIL6": "", "CITY": "Twinsburg", "COUNTY": "Summit", "STATE": "Ohio", "STEWARD": "MPSSC" }, "geometry": { "type": "Point", "coordinates": [ -81.398668601628543, 41.306368202520794 ] } },
{ "type": "Feature", "properties": { "WKT": "POINT (-81.41818136375278 41.316979916275272)", "ID": "0", "NAME": "Recreation Area", "TRAIL1": "Sugarbush Trail", "TRAIL2": "Prarie Trail", "TRAIL3": "", "SOURCE": "MPSSC", "PARKING": "yes", "KIOSK": "yes", "DRINKING_W": "yes", "RESTROOM": "yes", "PARK": "Liberty Park", "CONTACT_NU": "330-867-5511", "ADDRESS": "9385 Liberty Road", "ZIPCODE": "44087", "TRAIL4": "", "TRAIL5": "", "TRAIL6": "", "CITY": "Twinsbug", "COUNTY": "Summit", "STATE": "Ohio", "STEWARD": "MPSSC" }, "geometry": { "type": "Point", "coordinates": [ -81.41818136375278, 41.316979916275272 ] } },
{ "type": "Feature", "properties": { "WKT": "POINT (-81.410950470754585 41.332273611887061)", "ID": "0", "NAME": "Ledges Area", "TRAIL1": "Ledges Trail", "TRAIL2": "", "TRAIL3": "", "SOURCE": "MPSSC", "PARKING": "yes", "KIOSK": "yes", "DRINKING_W": "no", "RESTROOM": "no", "PARK": "Liberty Park", "CONTACT_NU": "330-867-5511", "ADDRESS": "9999 Liberty Road", "ZIPCODE": "44087", "TRAIL4": "", "TRAIL5": "", "TRAIL6": "", "CITY": "Twinsburg", "COUNTY": "Summit", "STATE": "Ohio", "STEWARD": "MPSSC" }, "geometry": { "type": "Point", "coordinates": [ -81.410950470754585, 41.332273611887054 ] } },
{ "type": "Feature", "properties": { "WKT": "POINT (-81.618610406684098 41.253774125982666)", "ID": "0", "NAME": "Daffodil Area", "TRAIL1": "Daffodil Trail", "TRAIL2": "", "TRAIL3": "", "SOURCE": "MPSSC", "PARKING": "yes", "KIOSK": "yes", "DRINKING_W": "no", "RESTROOM": "no", "PARK": "Furnace Run", "CONTACT_NU": "330-867-5511", "ADDRESS": "3100 Brush Road", "ZIPCODE": "44286", "TRAIL4": "", "TRAIL5": "", "TRAIL6": "", "CITY": "Richfield", "COUNTY": "Summit", "STATE": "Ohio", "STEWARD": "MPSSC" }, "geometry": { "type": "Point", "coordinates": [ -81.618610406684098, 41.253774125982666 ] } },
{ "type": "Feature", "properties": { "WKT": "POINT (-81.640307665397444 41.268872971661125)", "ID": "0", "NAME": "Brushwood Area", "TRAIL1": "Old Mill Trail", "TRAIL2": "Rock Creek Trail", "TRAIL3": "", "SOURCE": "MPSSC", "PARKING": "yes", "KIOSK": "yes", "DRINKING_W": "yes", "RESTROOM": "yes", "PARK": "Furnace Run", "CONTACT_NU": "330-867-5511", "ADDRESS": "4955 Townsend Road", "ZIPCODE": "44286", "TRAIL4": "", "TRAIL5": "", "TRAIL6": "", "CITY": "Richfield", "COUNTY": "Summit", "STATE": "Ohio", "STEWARD": "MPSSC" }, "geometry": { "type": "Point", "coordinates": [ -81.640307665397444, 41.268872971661125 ] } },
{ "type": "Feature", "properties": { "WKT": "POINT (-81.554458827392835 41.229994592174407)", "ID": "0", "NAME": "Deep Lock Quarry", "TRAIL1": "Quarry Trail", "TRAIL2": "Ohio & Erie Canal Towpath Trail", "TRAIL3": "", "SOURCE": "MPSSC", "PARKING": "yes", "KIOSK": "yes", "DRINKING_W": "no", "RESTROOM": "yes", "PARK": "Deep Lock Quarry", "CONTACT_NU": "330-867-5511", "ADDRESS": "5779 Riverview Road", "ZIPCODE": "44264", "TRAIL4": "", "TRAIL5": "", "TRAIL6": "", "CITY": "Peninsula", "COUNTY": "Summit", "STATE": "Ohio", "STEWARD": "MPSSC" }, "geometry": { "type": "Point", "coordinates": [ -81.554458827392835, 41.229994592174407 ] } },
{ "type": "Feature", "properties": { "WKT": "POINT (-81.580767463307538 41.204192624623673)", "ID": "0", "NAME": "Covered Bridge", "TRAIL1": "Riding Run Trail", "TRAIL2": "", "TRAIL3": "", "SOURCE": "MPSSC", "PARKING": "yes", "KIOSK": "yes", "DRINKING_W": "no", "RESTROOM": "yes", "PARK": "Riding Run", "CONTACT_NU": "330-867-5511", "ADDRESS": "2370 Everett Road", "ZIPCODE": "44264", "TRAIL4": "", "TRAIL5": "", "TRAIL6": "", "CITY": "Peninsula", "COUNTY": "Summit", "STATE": "Ohio", "STEWARD": "MPSSC, NPS" }, "geometry": { "type": "Point", "coordinates": [ -81.580767463307538, 41.204192624623673 ] } },
{ "type": "Feature", "properties": { "WKT": "POINT (-81.539899129093456 41.127122070585749)", "ID": "0", "NAME": "Big Bend", "TRAIL1": "Ohio & Erie Canal Towpath Trail", "TRAIL2": "Valley Link Trail", "TRAIL3": "", "SOURCE": "MPSSC", "PARKING": "yes", "KIOSK": "yes", "DRINKING_W": "yes", "RESTROOM": "yes", "PARK": "Sand Run", "CONTACT_NU": "330-867-5511", "ADDRESS": "1337 Merriman Road", "ZIPCODE": "44313", "TRAIL4": "", "TRAIL5": "", "TRAIL6": "", "CITY": "Akron", "COUNTY": "Summit", "STATE": "Ohio", "STEWARD": "MPSSC" }, "geometry": { "type": "Point", "coordinates": [ -81.539899129093456, 41.127122070585749 ] } },
{ "type": "Feature", "properties": { "WKT": "POINT (-81.528715307630733 41.104397473112321)", "ID": "0", "NAME": "Memorial Parkway", "TRAIL1": "Ohio & Erie Canal Towpath Trail", "TRAIL2": "", "TRAIL3": "", "SOURCE": "MPSSC", "PARKING": "yes", "KIOSK": "yes", "DRINKING_W": "yes", "RESTROOM": "yes", "PARK": "Towpath Trail", "CONTACT_NU": "330-867-5511", "ADDRESS": "499 Memorial Parkway", "ZIPCODE": "44310", "TRAIL4": "", "TRAIL5": "", "TRAIL6": "", "CITY": "Akron", "COUNTY": "Summit", "STATE": "Ohio", "STEWARD": "MPSSC, Akron" }, "geometry": { "type": "Point", "coordinates": [ -81.528715307630733, 41.104397473112321 ] } },
{ "type": "Feature", "properties": { "WKT": "POINT (-81.518277366653464 41.09136235335621)", "ID": "0", "NAME": "Mustill Store North", "TRAIL1": "Ohio & Erie Canal Towpath Trail", "TRAIL2": "", "TRAIL3": "", "SOURCE": "MPSSC", "PARKING": "yes", "KIOSK": "yes", "DRINKING_W": "yes", "RESTROOM": "yes", "PARK": "Towpath Trail", "CONTACT_NU": "330-867-5511", "ADDRESS": "248 Ferndale", "ZIPCODE": "44304", "TRAIL4": "", "TRAIL5": "", "TRAIL6": "", "CITY": "Akron", "COUNTY": "Summit", "STATE": "Ohio", "STEWARD": "MPSSC, Akron" }, "geometry": { "type": "Point", "coordinates": [ -81.518277366653464, 41.09136235335621 ] } },
{ "type": "Feature", "properties": { "WKT": "POINT (-81.518080350776643 41.090790545548231)", "ID": "0", "NAME": "Mustill Store South", "TRAIL1": "Ohio & Erie Canal Towpath Trail", "TRAIL2": "", "TRAIL3": "", "SOURCE": "MPSSC", "PARKING": "yes", "KIOSK": "yes", "DRINKING_W": "no", "RESTROOM": "no", "PARK": "Towpath Trail", "CONTACT_NU": "330-867-5511", "ADDRESS": "", "ZIPCODE": "44304", "TRAIL4": "", "TRAIL5": "", "TRAIL6": "", "CITY": "Akron", "COUNTY": "Summit", "STATE": "Ohio", "STEWARD": "MPSSC, Akron" }, "geometry": { "type": "Point", "coordinates": [ -81.518080350776629, 41.090790545548231 ] } },
{ "type": "Feature", "properties": { "WKT": "POINT (-81.518250895956839 41.087825010082241)", "ID": "0", "NAME": "Beech Street", "TRAIL1": "Ohio & Erie Canal Towpath Trail", "TRAIL2": "", "TRAIL3": "", "SOURCE": "MPSSC", "PARKING": "yes", "KIOSK": "yes", "DRINKING_W": "no", "RESTROOM": "no", "PARK": "Towpath Trail", "CONTACT_NU": "330-867-5511", "ADDRESS": "40 Beech Street", "ZIPCODE": "44308", "TRAIL4": "", "TRAIL5": "", "TRAIL6": "", "CITY": "Akron", "COUNTY": "Summit", "STATE": "Ohio", "STEWARD": "MPSSC, Akron" }, "geometry": { "type": "Point", "coordinates": [ -81.518250895956839, 41.087825010082241 ] } },
{ "type": "Feature", "properties": { "WKT": "POINT (-81.542415221591611 41.058643901528932)", "ID": "0", "NAME": "Summit Lake Park", "TRAIL1": "Ohio & Erie Canal Towpath Trail", "TRAIL2": "", "TRAIL3": "", "SOURCE": "MPSSC", "PARKING": "yes", "KIOSK": "yes", "DRINKING_W": "yes", "RESTROOM": "yes", "PARK": "Summit Lake Park", "CONTACT_NU": "", "ADDRESS": "380 Crosier Street", "ZIPCODE": "44311", "TRAIL4": "", "TRAIL5": "", "TRAIL6": "", "CITY": "Akron", "COUNTY": "Summit", "STATE": "Ohio", "STEWARD": "Akron" }, "geometry": { "type": "Point", "coordinates": [ -81.542415221591597, 41.058643901528932 ] } },
{ "type": "Feature", "properties": { "WKT": "POINT (-81.540085263211353 41.039557213939368)", "ID": "0", "NAME": "Wilbeth Road", "TRAIL1": "Ohio & Erie Canal Towpath Trail", "TRAIL2": "", "TRAIL3": "", "SOURCE": "MPSSC", "PARKING": "yes", "KIOSK": "yes", "DRINKING_W": "no", "RESTROOM": "", "PARK": "Towpath Trail", "CONTACT_NU": "330-867-5511", "ADDRESS": "392 West Wilbeth Steret", "ZIPCODE": "44314", "TRAIL4": "", "TRAIL5": "", "TRAIL6": "", "CITY": "Akron", "COUNTY": "Summit", "STATE": "Ohio", "STEWARD": "MPSSC, Akron" }, "geometry": { "type": "Point", "coordinates": [ -81.540085263211353, 41.039557213939368 ] } },
{ "type": "Feature", "properties": { "WKT": "POINT (-81.550794297918898 41.023540868768897)", "ID": "0", "NAME": "Manchester Road", "TRAIL1": "Ohio & Erie Canal Towpath Trail", "TRAIL2": "", "TRAIL3": "", "SOURCE": "MPSSC", "PARKING": "yes", "KIOSK": "yes", "DRINKING_W": "no", "RESTROOM": "no", "PARK": "Confluence", "CONTACT_NU": "330-867-5511", "ADDRESS": "2740 Manchester Road", "ZIPCODE": "44314", "TRAIL4": "", "TRAIL5": "", "TRAIL6": "", "CITY": "Akron", "COUNTY": "Summit", "STATE": "Ohio", "STEWARD": "MPSSC" }, "geometry": { "type": "Point", "coordinates": [ -81.550794297918898, 41.023540868768897 ] } },
{ "type": "Feature", "properties": { "WKT": "POINT (-81.593060805950685 41.023516250305249)", "ID": "0", "NAME": "Fairview", "TRAIL1": "Ohio & Erie Canal Towpath Trail", "TRAIL2": "", "TRAIL3": "", "SOURCE": "MPSSC", "PARKING": "yes", "KIOSK": "yes", "DRINKING_W": "no", "RESTROOM": "no", "PARK": "Towpath Trail", "CONTACT_NU": "330-867-5511", "ADDRESS": "5 Fairview Avenue", "ZIPCODE": "44203", "TRAIL4": "", "TRAIL5": "", "TRAIL6": "", "CITY": "Barberton", "COUNTY": "Summit", "STATE": "Ohio", "STEWARD": "MPSSC" }, "geometry": { "type": "Point", "coordinates": [ -81.593060805950685, 41.023516250305249 ] } },
{ "type": "Feature", "properties": { "WKT": "POINT (-81.607771310851263 41.003669648768678)", "ID": "0", "NAME": "Wolf Creek", "TRAIL1": "Ohio & Erie Canal Towpath Trail", "TRAIL2": "", "TRAIL3": "", "SOURCE": "MPSSC", "PARKING": "yes", "KIOSK": "yes", "DRINKING_W": "yes", "RESTROOM": "yes", "PARK": "Towpath Trail", "CONTACT_NU": "330-867-5511", "ADDRESS": "33 Snyder Avenue", "ZIPCODE": "44203", "TRAIL4": "", "TRAIL5": "", "TRAIL6": "", "CITY": "Barberton", "COUNTY": "Summit", "STATE": "Ohio", "STEWARD": "MPSSC" }, "geometry": { "type": "Point", "coordinates": [ -81.607771310851263, 41.003669648768678 ] } },
{ "type": "Feature", "properties": { "WKT": "POINT (-81.606019144951205 40.978349075325802)", "ID": "0", "NAME": "Vanderhoof", "TRAIL1": "Ohio & Erie Canal Towpath Trail", "TRAIL2": "", "TRAIL3": "", "SOURCE": "MPSSC", "PARKING": "yes", "KIOSK": "yes", "DRINKING_W": "no", "RESTROOM": "yes", "PARK": "Towpath Trail", "CONTACT_NU": "330-867-5511", "ADDRESS": "2445 Vanderhoof Road", "ZIPCODE": "44203", "TRAIL4": "", "TRAIL5": "", "TRAIL6": "", "CITY": "Barberton", "COUNTY": "Summit", "STATE": "Ohio", "STEWARD": "MPSSC" }, "geometry": { "type": "Point", "coordinates": [ -81.606019144951205, 40.978349075325795 ] } },
{ "type": "Feature", "properties": { "WKT": "POINT (-81.617536944685696 40.947336630981582)", "ID": "0", "NAME": "Center Road", "TRAIL1": "Ohio & Erie Canal Towpath Trail", "TRAIL2": "", "TRAIL3": "", "SOURCE": "MPSSC", "PARKING": "yes", "KIOSK": "yes", "DRINKING_W": "no", "RESTROOM": "yes", "PARK": "Towpath Trail", "CONTACT_NU": "330-867-5511", "ADDRESS": "2328 Center Road", "ZIPCODE": "44216", "TRAIL4": "", "TRAIL5": "", "TRAIL6": "", "CITY": "New Franklin", "COUNTY": "Summit", "STATE": "Ohio", "STEWARD": "MPSSC" }, "geometry": { "type": "Point", "coordinates": [ -81.617536944685696, 40.947336630981582 ] } },
{ "type": "Feature", "properties": { "WKT": "POINT (-81.629335817461325 40.928768778542484)", "ID": "0", "NAME": "Clinton Trailhead", "TRAIL1": "Ohio & Erie Canal Towpath Trail", "TRAIL2": "", "TRAIL3": "", "SOURCE": "MPSSC", "PARKING": "yes", "KIOSK": "yes", "DRINKING_W": "no", "RESTROOM": "yes", "PARK": "Towpath Trail", "CONTACT_NU": "330-867-5511", "ADDRESS": "2749 North Street", "ZIPCODE": "44216", "TRAIL4": "", "TRAIL5": "", "TRAIL6": "", "CITY": "Clinton", "COUNTY": "Summit", "STATE": "Ohio", "STEWARD": "MPSSC" }, "geometry": { "type": "Point", "coordinates": [ -81.629335817461325, 40.928768778542484 ] } },
{ "type": "Feature", "properties": { "WKT": "POINT (-81.563497947662256 41.314673791401937)", "ID": "0", "NAME": "SR 82 North", "TRAIL1": "Bike & Hike Trail", "TRAIL2": "", "TRAIL3": "", "SOURCE": "MPSSC", "PARKING": "yes", "KIOSK": "yes", "DRINKING_W": "no", "RESTROOM": "no", "PARK": "Bike & Hike Trail", "CONTACT_NU": "330-867-5511", "ADDRESS": "685 Aurora Road", "ZIPCODE": "44067", "TRAIL4": "", "TRAIL5": "", "TRAIL6": "", "CITY": "Sagamore Hills", "COUNTY": "Summit", "STATE": "Ohio", "STEWARD": "MPSSC" }, "geometry": { "type": "Point", "coordinates": [ -81.563497947662256, 41.31467379140193 ] } },
{ "type": "Feature", "properties": { "WKT": "POINT (-81.562999448524508 41.314068930502451)", "ID": "0", "NAME": "SR 82 South", "TRAIL1": "Bike & Hike Trail", "TRAIL2": "", "TRAIL3": "", "SOURCE": "MPSSC", "PARKING": "yes", "KIOSK": "yes", "DRINKING_W": "no", "RESTROOM": "no", "PARK": "Bike & HIke Trail", "CONTACT_NU": "330-867-5511", "ADDRESS": "686 Aurora Road", "ZIPCODE": "44067", "TRAIL4": "", "TRAIL5": "", "TRAIL6": "", "CITY": "Sagamore Hills", "COUNTY": "Summit", "STATE": "Ohio", "STEWARD": "MPSSC" }, "geometry": { "type": "Point", "coordinates": [ -81.562999448524508, 41.314068930502451 ] } },
{ "type": "Feature", "properties": { "WKT": "POINT (-81.539198943077224 41.276211611205191)", "ID": "0", "NAME": "Brandywine Falls", "TRAIL1": "Bike & HIke Trail", "TRAIL2": "Stanford Trail", "TRAIL3": "", "SOURCE": "MPSSC", "PARKING": "yes", "KIOSK": "yes", "DRINKING_W": "yes", "RESTROOM": "yes", "PARK": "Bike & Hike Trail", "CONTACT_NU": "", "ADDRESS": "8176 Brandywine Road", "ZIPCODE": "44067", "TRAIL4": "", "TRAIL5": "", "TRAIL6": "", "CITY": "Sagamore Hills", "COUNTY": "Summit", "STATE": "Ohio", "STEWARD": "MPSSC, NPS" }, "geometry": { "type": "Point", "coordinates": [ -81.53919894307721, 41.276211611205191 ] } },
{ "type": "Feature", "properties": { "WKT": "POINT (-81.519145298505123 41.255118985810668)", "ID": "0", "NAME": "Boston Mills Road", "TRAIL1": "Bike & Hike Trail", "TRAIL2": "", "TRAIL3": "", "SOURCE": "MPSSC", "PARKING": "yes", "KIOSK": "yes", "DRINKING_W": "no", "RESTROOM": "no", "PARK": "Bike & Hike Trail", "CONTACT_NU": "", "ADDRESS": "298 West Boston Mills Road", "ZIPCODE": "44264", "TRAIL4": "", "TRAIL5": "", "TRAIL6": "", "CITY": "Boston Heights", "COUNTY": "Summit", "STATE": "Ohio", "STEWARD": "MPSSC, NPS" }, "geometry": { "type": "Point", "coordinates": [ -81.519145298505123, 41.255118985810668 ] } },
{ "type": "Feature", "properties": { "WKT": "POINT (-81.493942487022267 41.231242069090293)", "ID": "0", "NAME": "SR 303", "TRAIL1": "Bike & Hike Trail", "TRAIL2": "", "TRAIL3": "", "SOURCE": "MPSSC", "PARKING": "yes", "KIOSK": "yes", "DRINKING_W": "no", "RESTROOM": "yes", "PARK": "Bike & HIke Trail", "CONTACT_NU": "330-867-5511", "ADDRESS": "64 West Streetsboro Road", "ZIPCODE": "44264", "TRAIL4": "", "TRAIL5": "", "TRAIL6": "", "CITY": "Boston Heights", "COUNTY": "Summit", "STATE": "Ohio", "STEWARD": "MPSSC, NPS" }, "geometry": { "type": "Point", "coordinates": [ -81.493942487022252, 41.231242069090293 ] } },
{ "type": "Feature", "properties": { "WKT": "POINT (-81.419281842339956 41.194679812316792)", "ID": "0", "NAME": "Silver Springs Park", "TRAIL1": "Bike & Hike Trail", "TRAIL2": "", "TRAIL3": "", "SOURCE": "MPSSC", "PARKING": "yes", "KIOSK": "no", "DRINKING_W": "no", "RESTROOM": "no", "PARK": "Bike & Hike Trail", "CONTACT_NU": "330-867-5511", "ADDRESS": "5027 Stow Road", "ZIPCODE": "44224", "TRAIL4": "", "TRAIL5": "", "TRAIL6": "", "CITY": "Stow", "COUNTY": "Summit", "STATE": "Ohio", "STEWARD": "MPSSC" }, "geometry": { "type": "Point", "coordinates": [ -81.419281842339956, 41.194679812316792 ] } },
{ "type": "Feature", "properties": { "WKT": "POINT (-81.480296104836469 41.219494255473784)", "ID": "0", "NAME": "Barlow Road Parking Lot", "TRAIL1": "Bike & HIke Trail", "TRAIL2": "", "TRAIL3": "", "SOURCE": "MPSSC", "PARKING": "yes", "KIOSK": "yes", "DRINKING_W": "no", "RESTROOM": "no", "PARK": "Bike & Hike Trail", "CONTACT_NU": "330-867-5511", "ADDRESS": "331 Barlow Road", "ZIPCODE": "44236", "TRAIL4": "", "TRAIL5": "", "TRAIL6": "", "CITY": "Hudson", "COUNTY": "Summit", "STATE": "Ohio", "STEWARD": "MPSSC" }, "geometry": { "type": "Point", "coordinates": [ -81.480296104836469, 41.219494255473784 ] } },
{ "type": "Feature", "properties": { "WKT": "POINT (-81.473476089315653 41.177363417051545)", "ID": "0", "NAME": "Springdale Parking Lot", "TRAIL1": "Bike & Hike Trail", "TRAIL2": "", "TRAIL3": "", "SOURCE": "MPSSC", "PARKING": "yes", "KIOSK": "yes", "DRINKING_W": "yes", "RESTROOM": "yes", "PARK": "Bike & Hike Trail", "CONTACT_NU": "330-867-5511", "ADDRESS": "968 Springdale Road", "ZIPCODE": "44224", "TRAIL4": "", "TRAIL5": "", "TRAIL6": "", "CITY": "Stow", "COUNTY": "Summit", "STATE": "Ohio", "STEWARD": "MPSSC" }, "geometry": { "type": "Point", "coordinates": [ -81.473476089315653, 41.177363417051545 ] } },
{ "type": "Feature", "properties": { "WKT": "POINT (-81.457008587955315 41.149885989061431)", "ID": "0", "NAME": "Silver Lake Town Hall", "TRAIL1": "Bike & Hike Trail", "TRAIL2": "", "TRAIL3": "", "SOURCE": "MPSSC", "PARKING": "yes", "KIOSK": "yes", "DRINKING_W": "no", "RESTROOM": "no", "PARK": "Bike & HIke Trail", "CONTACT_NU": "330-867-5511", "ADDRESS": "2985 Kent Road", "ZIPCODE": "44224", "TRAIL4": "", "TRAIL5": "", "TRAIL6": "", "CITY": "Silver Lake", "COUNTY": "Summit", "STATE": "Ohio", "STEWARD": "MPSSC" }, "geometry": { "type": "Point", "coordinates": [ -81.457008587955301, 41.149885989061431 ] } },
{ "type": "Feature", "properties": { "WKT": "POINT (-81.438475077449141 41.142971807599125)", "ID": "0", "NAME": "Brust Park", "TRAIL1": "Bike & Hike Trail", "TRAIL2": "", "TRAIL3": "", "SOURCE": "MPSSC", "PARKING": "yes", "KIOSK": "yes", "DRINKING_W": "yes", "RESTROOM": "yes", "PARK": "Bike & Hike Trail", "CONTACT_NU": "330-867-5511", "ADDRESS": "130 North Main Street", "ZIPCODE": "44262", "TRAIL4": "", "TRAIL5": "", "TRAIL6": "", "CITY": "Munroe Falls", "COUNTY": "Summit", "STATE": "Ohio", "STEWARD": "MPSSC, Munroe Falls" }, "geometry": { "type": "Point", "coordinates": [ -81.438475077449141, 41.142971807599125 ] } },
{ "type": "Feature", "properties": { "WKT": "POINT (-81.590671003920903 41.170501060173166)", "ID": "0", "NAME": "O'Neil Woods", "TRAIL1": "Buckeye Trail", "TRAIL2": "Deer Run Trail", "TRAIL3": "", "SOURCE": "MPSSC", "PARKING": "yes", "KIOSK": "yes", "DRINKING_W": "no", "RESTROOM": "yes", "PARK": "O'Neil Woods", "CONTACT_NU": "330-867-5511", "ADDRESS": "2550 Martin Road", "ZIPCODE": "44333", "TRAIL4": "", "TRAIL5": "", "TRAIL6": "", "CITY": "Bath", "COUNTY": "Summit", "STATE": "Ohio", "STEWARD": "MPSSC" }, "geometry": { "type": "Point", "coordinates": [ -81.590671003920903, 41.170501060173166 ] } },
{ "type": "Feature", "properties": { "WKT": "POINT (-81.56758829312696 41.166667830296639)", "ID": "0", "NAME": "A-P Field", "TRAIL1": "Adam Run Trail", "TRAIL2": "Spring Hollow Trail", "TRAIL3": "", "SOURCE": "MPSSC", "PARKING": "yes", "KIOSK": "yes", "DRINKING_W": "no", "RESTROOM": "yes", "PARK": "Hampton Hills", "CONTACT_NU": "330-867-5511", "ADDRESS": "2925 Akron-Peninsula Road", "ZIPCODE": "44313", "TRAIL4": "", "TRAIL5": "", "TRAIL6": "", "CITY": "Akron", "COUNTY": "Summit", "STATE": "Ohio", "STEWARD": "MPSSC" }, "geometry": { "type": "Point", "coordinates": [ -81.56758829312696, 41.166667830296639 ] } },
{ "type": "Feature", "properties": { "WKT": "POINT (-81.568714169960316 41.168665366673061)", "ID": "0", "NAME": "Steels Corners", "TRAIL1": "", "TRAIL2": "", "TRAIL3": "", "SOURCE": "MPSSC", "PARKING": "yes", "KIOSK": "no", "DRINKING_W": "no", "RESTROOM": "no", "PARK": "Hampton Hills", "CONTACT_NU": "330-867-5511", "ADDRESS": "1940 West Steels Corners Road", "ZIPCODE": "44223", "TRAIL4": "", "TRAIL5": "", "TRAIL6": "", "CITY": "Akron", "COUNTY": "Summit", "STATE": "Ohio", "STEWARD": "MPSSC" }, "geometry": { "type": "Point", "coordinates": [ -81.568714169960316, 41.168665366673061 ] } },
{ "type": "Feature", "properties": { "WKT": "POINT (-81.549534924745828 41.168167137867037)", "ID": "0", "NAME": "Top O'World", "TRAIL1": "Adam Run Trail", "TRAIL2": "", "TRAIL3": "", "SOURCE": "MPSSC", "PARKING": "yes", "KIOSK": "yes", "DRINKING_W": "no", "RESTROOM": "no", "PARK": "Hampton Hills", "CONTACT_NU": "330-867-5511", "ADDRESS": "1285 Bath Road", "ZIPCODE": "44223", "TRAIL4": "", "TRAIL5": "", "TRAIL6": "", "CITY": "Cuyahoga Falls", "COUNTY": "Summit", "STATE": "Ohio", "STEWARD": "MPSSC" }, "geometry": { "type": "Point", "coordinates": [ -81.549534924745828, 41.168167137867037 ] } },
{ "type": "Feature", "properties": { "WKT": "POINT (-81.425494546418548 41.129650106388162)", "ID": "0", "NAME": "Lake Area", "TRAIL1": "Indian Springs Trail", "TRAIL2": "", "TRAIL3": "", "SOURCE": "MPSSC", "PARKING": "yes", "KIOSK": "yes", "DRINKING_W": "yes", "RESTROOM": "yes", "PARK": "Munroe Falls", "CONTACT_NU": "330-867-5511", "ADDRESS": "521 South River Road", "ZIPCODE": "44262", "TRAIL4": "", "TRAIL5": "", "TRAIL6": "", "CITY": "Munroe Falls", "COUNTY": "Summit", "STATE": "Ohio", "STEWARD": "MPSSC" }, "geometry": { "type": "Point", "coordinates": [ -81.425494546418548, 41.129650106388162 ] } },
{ "type": "Feature", "properties": { "WKT": "POINT (-81.435614223903883 41.130493195210015)", "ID": "0", "NAME": "Tallmadge Meadows", "TRAIL1": "Meadow Trail", "TRAIL2": "Medow Loop Trail", "TRAIL3": "", "SOURCE": "MPSSC", "PARKING": "yes", "KIOSK": "yes", "DRINKING_W": "no", "RESTROOM": "yes", "PARK": "Munroe Falls", "CONTACT_NU": "330-867-5511", "ADDRESS": "1088 North Avenue", "ZIPCODE": "44278", "TRAIL4": "", "TRAIL5": "", "TRAIL6": "", "CITY": "Tallmadge", "COUNTY": "Summit", "STATE": "Ohio", "STEWARD": "MPSSC" }, "geometry": { "type": "Point", "coordinates": [ -81.435614223903869, 41.130493195210015 ] } },
{ "type": "Feature", "properties": { "WKT": "POINT (-81.393550147014949 41.012129055229998)", "ID": "0", "NAME": "Springfield Bog", "TRAIL1": "Prairie Trail", "TRAIL2": "", "TRAIL3": "", "SOURCE": "MPSSC", "PARKING": "yes", "KIOSK": "yes", "DRINKING_W": "no", "RESTROOM": "yes", "PARK": "Springfield Bog", "CONTACT_NU": "330-867-5511", "ADDRESS": "1400 Portage Line Road", "ZIPCODE": "44312", "TRAIL4": "", "TRAIL5": "", "TRAIL6": "", "CITY": "Springfield", "COUNTY": "Summit", "STATE": "Ohio", "STEWARD": "MPSSC" }, "geometry": { "type": "Point", "coordinates": [ -81.393550147014949, 41.012129055229998 ] } },
{ "type": "Feature", "properties": { "WKT": "POINT (-81.449757111013213 41.073046521827621)", "ID": "0", "NAME": "Goodyear Heights Pavilion", "TRAIL1": "Parcours Trail", "TRAIL2": "", "TRAIL3": "", "SOURCE": "MPSSC", "PARKING": "yes", "KIOSK": "yes", "DRINKING_W": "yes", "RESTROOM": "yes", "PARK": "Goodyear Heights", "CONTACT_NU": "330-867-5511", "ADDRESS": "2077 Newton Street", "ZIPCODE": "44305", "TRAIL4": "", "TRAIL5": "", "TRAIL6": "", "CITY": "Akron", "COUNTY": "Summit", "STATE": "Ohio", "STEWARD": "MPSSC" }, "geometry": { "type": "Point", "coordinates": [ -81.449757111013213, 41.073046521827621 ] } },
{ "type": "Feature", "properties": { "WKT": "POINT (-81.451538352580158 41.074735073822424)", "ID": "0", "NAME": "Goodyear Heights Parcours", "TRAIL1": "Parcours Trail", "TRAIL2": "Piney Woods", "TRAIL3": "", "SOURCE": "MPSSC", "PARKING": "yes", "KIOSK": "yes", "DRINKING_W": "yes", "RESTROOM": "yes", "PARK": "Goodyear Heights", "CONTACT_NU": "330-867-5511", "ADDRESS": "2077 Newton Street", "ZIPCODE": "44305", "TRAIL4": "", "TRAIL5": "", "TRAIL6": "", "CITY": "Akron", "COUNTY": "Summit", "STATE": "Ohio", "STEWARD": "MPSSC" }, "geometry": { "type": "Point", "coordinates": [ -81.451538352580144, 41.074735073822424 ] } },
{ "type": "Feature", "properties": { "WKT": "POINT (-81.448482808718467 41.083677014598642)", "ID": "0", "NAME": "Eastwood Ballfields", "TRAIL1": "", "TRAIL2": "", "TRAIL3": "", "SOURCE": "MPSSC", "PARKING": "yes", "KIOSK": "yes", "DRINKING_W": "yes", "RESTROOM": "yes", "PARK": "Goodyear Heights", "CONTACT_NU": "330-867-5511", "ADDRESS": "1950 Eastwood Avenue", "ZIPCODE": "44305", "TRAIL4": "", "TRAIL5": "", "TRAIL6": "", "CITY": "Akron", "COUNTY": "Summit", "STATE": "Ohio", "STEWARD": "MPSSC" }, "geometry": { "type": "Point", "coordinates": [ -81.448482808718467, 41.083677014598642 ] } },
{ "type": "Feature", "properties": { "WKT": "POINT (-81.45459231136374 41.076409810367515)", "ID": "0", "NAME": "Pioneer Area", "TRAIL1": "Alder Trail", "TRAIL2": "Piney Woods", "TRAIL3": "", "SOURCE": "MPSSC", "PARKING": "yes", "KIOSK": "yes", "DRINKING_W": "yes", "RESTROOM": "yes", "PARK": "Goodyear Heights", "CONTACT_NU": "330-867-5511", "ADDRESS": "550 Frazier Avenue", "ZIPCODE": "44305", "TRAIL4": "", "TRAIL5": "", "TRAIL6": "", "CITY": "Akron", "COUNTY": "Summit", "STATE": "Ohio", "STEWARD": "MPSSC" }, "geometry": { "type": "Point", "coordinates": [ -81.45459231136374, 41.076409810367515 ] } },
{ "type": "Feature", "properties": { "WKT": "POINT (-81.521806637070412 41.014818653617553)", "ID": "0", "NAME": "Coventry Oaks Area", "TRAIL1": "Willow Trail", "TRAIL2": "Walking Course", "TRAIL3": "", "SOURCE": "MPSSC", "PARKING": "yes", "KIOSK": "yes", "DRINKING_W": "yes", "RESTROOM": "yes", "PARK": "Firestone", "CONTACT_NU": "330-867-5511", "ADDRESS": "40 Axline Avenue", "ZIPCODE": "44319", "TRAIL4": "", "TRAIL5": "", "TRAIL6": "", "CITY": "Akron", "COUNTY": "Summit", "STATE": "Ohio", "STEWARD": "MPSSC" }, "geometry": { "type": "Point", "coordinates": [ -81.521806637070412, 41.014818653617553 ] } },
{ "type": "Feature", "properties": { "WKT": "POINT (-81.511369749335117 41.017029679735053)", "ID": "0", "NAME": "Little Turtle Pond", "TRAIL1": "Redwing Trail", "TRAIL2": "", "TRAIL3": "", "SOURCE": "MPSSC", "PARKING": "yes", "KIOSK": "yes", "DRINKING_W": "no", "RESTROOM": "no", "PARK": "Firestone", "CONTACT_NU": "330-867-5511", "ADDRESS": "2400 Harrington Road", "ZIPCODE": "44319", "TRAIL4": "", "TRAIL5": "", "TRAIL6": "", "CITY": "Akron", "COUNTY": "Summit", "STATE": "Ohio", "STEWARD": "MPSSC" }, "geometry": { "type": "Point", "coordinates": [ -81.511369749335117, 41.017029679735053 ] } },
{ "type": "Feature", "properties": { "WKT": "POINT (-81.522184744015462 41.010803674724606)", "ID": "0", "NAME": "Sled Hill Drop-off", "TRAIL1": "", "TRAIL2": "", "TRAIL3": "", "SOURCE": "MPSSC", "PARKING": "no", "KIOSK": "no", "DRINKING_W": "no", "RESTROOM": "no", "PARK": "Firestone", "CONTACT_NU": "330-867-5511", "ADDRESS": "55 East Warner Road", "ZIPCODE": "44319", "TRAIL4": "", "TRAIL5": "", "TRAIL6": "", "CITY": "Akron", "COUNTY": "Summit", "STATE": "Ohio", "STEWARD": "MPSSC" }, "geometry": { "type": "Point", "coordinates": [ -81.522184744015462, 41.010803674724606 ] } },
{ "type": "Feature", "properties": { "WKT": "POINT (-81.514763424218884 41.011961483847735)", "ID": "0", "NAME": "Tuscarawas Meadows Area", "TRAIL1": "Willow Trail", "TRAIL2": "", "TRAIL3": "", "SOURCE": "MPSSC", "PARKING": "yes", "KIOSK": "yes", "DRINKING_W": "yes", "RESTROOM": "no", "PARK": "Firestone", "CONTACT_NU": "330-867-5511", "ADDRESS": "2620 Harrington Road", "ZIPCODE": "44319", "TRAIL4": "", "TRAIL5": "", "TRAIL6": "", "CITY": "Akron", "COUNTY": "Summit", "STATE": "Ohio", "STEWARD": "MPSSC" }, "geometry": { "type": "Point", "coordinates": [ -81.514763424218884, 41.011961483847735 ] } },
{ "type": "Feature", "properties": { "WKT": "POINT (-81.516580868907482 41.010755945061639)", "ID": "0", "NAME": "Warner Road Area", "TRAIL1": "Wlaking Course", "TRAIL2": "", "TRAIL3": "", "SOURCE": "MPSSC", "PARKING": "yes", "KIOSK": "yes", "DRINKING_W": "no", "RESTROOM": "yes", "PARK": "Firestone", "CONTACT_NU": "330-867-5511", "ADDRESS": "200 East Warner Road", "ZIPCODE": "44319", "TRAIL4": "", "TRAIL5": "", "TRAIL6": "", "CITY": "Akron", "COUNTY": "Summit", "STATE": "Ohio", "STEWARD": "MPSSC" }, "geometry": { "type": "Point", "coordinates": [ -81.516580868907468, 41.010755945061639 ] } },
{ "type": "Feature", "properties": { "WKT": "POINT (-81.493449052830073 41.120140119697673)", "ID": "0", "NAME": "Gorge Main Entrance", "TRAIL1": "Glens Trail", "TRAIL2": "Gorge Trail", "TRAIL3": "", "SOURCE": "MPSSC", "PARKING": "yes", "KIOSK": "yes", "DRINKING_W": "yes", "RESTROOM": "yes", "PARK": "Gorge", "CONTACT_NU": "330-867-5511", "ADDRESS": "1160 Front Street", "ZIPCODE": "44223", "TRAIL4": "", "TRAIL5": "", "TRAIL6": "", "CITY": "Cuyahoga Falls", "COUNTY": "Summit", "STATE": "Ohio", "STEWARD": "MPSSC" }, "geometry": { "type": "Point", "coordinates": [ -81.493449052830073, 41.120140119697673 ] } },
{ "type": "Feature", "properties": { "WKT": "POINT (-81.493962583762368 41.117669356841041)", "ID": "0", "NAME": "Highbridge", "TRAIL1": "Highbridge Trail", "TRAIL2": "", "TRAIL3": "", "SOURCE": "MPSSC", "PARKING": "yes", "KIOSK": "yes", "DRINKING_W": "no", "RESTROOM": "no", "PARK": "Gorge", "CONTACT_NU": "330-867-5511", "ADDRESS": "1270 Front Street", "ZIPCODE": "44310", "TRAIL4": "", "TRAIL5": "", "TRAIL6": "", "CITY": "Akron", "COUNTY": "Summit", "STATE": "Ohio", "STEWARD": "MPSSC" }, "geometry": { "type": "Point", "coordinates": [ -81.493962583762368, 41.117669356841034 ] } },
{ "type": "Feature", "properties": { "WKT": "POINT (-81.69181977995342 40.988724155591221)", "ID": "0", "NAME": "Silver Creek Archery", "TRAIL1": "", "TRAIL2": "", "TRAIL3": "", "SOURCE": "MPSSC", "PARKING": "yes", "KIOSK": "yes", "DRINKING_W": "no", "RESTROOM": "no", "PARK": "Silver Creek", "CONTACT_NU": "330-867-5511", "ADDRESS": "89 Eastern Road", "ZIPCODE": "44203", "TRAIL4": "", "TRAIL5": "", "TRAIL6": "", "CITY": "Wadsworth Township", "COUNTY": "Medina", "STATE": "Ohio", "STEWARD": "MPSSC" }, "geometry": { "type": "Point", "coordinates": [ -81.69181977995342, 40.988724155591214 ] } },
{ "type": "Feature", "properties": { "WKT": "POINT (-81.687170340109958 40.993874142117868)", "ID": "0", "NAME": "Boathouse Area", "TRAIL1": "Chippewa Trail", "TRAIL2": "", "TRAIL3": "", "SOURCE": "MPSSC", "PARKING": "yes", "KIOSK": "yes", "DRINKING_W": "no", "RESTROOM": "yes", "PARK": "Silver Creek", "CONTACT_NU": "330-867-5511", "ADDRESS": "5179 Medina Line Road", "ZIPCODE": "44230", "TRAIL4": "", "TRAIL5": "", "TRAIL6": "", "CITY": "Norton", "COUNTY": "Summit", "STATE": "Ohio", "STEWARD": "MPSSC" }, "geometry": { "type": "Point", "coordinates": [ -81.687170340109958, 40.993874142117868 ] } },
{ "type": "Feature", "properties": { "WKT": "POINT (-81.685034979938067 40.991936418278776)", "ID": "0", "NAME": "Big Oak Area", "TRAIL1": "Bridle Trail", "TRAIL2": "", "TRAIL3": "", "SOURCE": "MPSSC", "PARKING": "yes", "KIOSK": "yes", "DRINKING_W": "yes", "RESTROOM": "yes", "PARK": "Silver Creek", "CONTACT_NU": "330-867-5511", "ADDRESS": "5199 Medina Line Road", "ZIPCODE": "44230", "TRAIL4": "", "TRAIL5": "", "TRAIL6": "", "CITY": "Norton", "COUNTY": "Summit", "STATE": "Ohio", "STEWARD": "MPSSC" }, "geometry": { "type": "Point", "coordinates": [ -81.685034979938067, 40.991936418278776 ] } },
{ "type": "Feature", "properties": { "WKT": "POINT (-81.68338658022806 40.999065911583614)", "ID": "0", "NAME": "Bathhouse", "TRAIL1": "Pheasant Run Trail", "TRAIL2": "", "TRAIL3": "", "SOURCE": "MPSSC", "PARKING": "yes", "KIOSK": "yes", "DRINKING_W": "yes", "RESTROOM": "yes", "PARK": "Silver Creek", "CONTACT_NU": "330-867-5511", "ADDRESS": "5000 Hametown Road", "ZIPCODE": "44230", "TRAIL4": "", "TRAIL5": "", "TRAIL6": "", "CITY": "Norton", "COUNTY": "Summit", "STATE": "Ohio", "STEWARD": "MPSSC" }, "geometry": { "type": "Point", "coordinates": [ -81.68338658022806, 40.999065911583614 ] } },
{ "type": "Feature", "properties": { "WKT": "POINT (-81.675812783501584 40.997172901292828)", "ID": "0", "NAME": "Pheasant Run", "TRAIL1": "Pheasant Run Trail", "TRAIL2": "", "TRAIL3": "", "SOURCE": "MPSSC", "PARKING": "yes", "KIOSK": "yes", "DRINKING_W": "no", "RESTROOM": "yes", "PARK": "Silver Creek", "CONTACT_NU": "330-867-5511", "ADDRESS": "5000 Hametown Road", "ZIPCODE": "44230", "TRAIL4": "", "TRAIL5": "", "TRAIL6": "", "CITY": "Norton", "COUNTY": "Summit", "STATE": "Ohio", "STEWARD": "MPSSC" }, "geometry": { "type": "Point", "coordinates": [ -81.675812783501584, 40.997172901292828 ] } },
{ "type": "Feature", "properties": { "WKT": "POINT (-81.523735659962909 41.121120768015459)", "ID": "0", "NAME": "Oxbow Area", "TRAIL1": "Oxbow Trail", "TRAIL2": "", "TRAIL3": "", "SOURCE": "MPSSC", "PARKING": "yes", "KIOSK": "yes", "DRINKING_W": "yes", "RESTROOM": "yes", "PARK": "Cascade Valley", "CONTACT_NU": "330-867-5511", "ADDRESS": "1061 Cuyahoga Street", "ZIPCODE": "44313", "TRAIL4": "", "TRAIL5": "", "TRAIL6": "", "CITY": "Akron", "COUNTY": "Summit", "STATE": "Ohio", "STEWARD": "MPSSC" }, "geometry": { "type": "Point", "coordinates": [ -81.523735659962909, 41.121120768015459 ] } },
{ "type": "Feature", "properties": { "WKT": "POINT (-81.521258216572193 41.128581771116671)", "ID": "0", "NAME": "Sackett Avenue", "TRAIL1": "Overlook Trail", "TRAIL2": "", "TRAIL3": "", "SOURCE": "MPSSC", "PARKING": "yes", "KIOSK": "yes", "DRINKING_W": "no", "RESTROOM": "no", "PARK": "Cascade Valley", "CONTACT_NU": "330-867-5511", "ADDRESS": "354 Sackett Avenue", "ZIPCODE": "44313", "TRAIL4": "", "TRAIL5": "", "TRAIL6": "", "CITY": "Akron", "COUNTY": "Summit", "STATE": "Ohio", "STEWARD": "MPSSC" }, "geometry": { "type": "Point", "coordinates": [ -81.521258216572178, 41.128581771116664 ] } },
{ "type": "Feature", "properties": { "WKT": "POINT (-81.516578147437116 41.119456668198772)", "ID": "0", "NAME": "Chuckery Area", "TRAIL1": "Chuckery Trail", "TRAIL2": "", "TRAIL3": "", "SOURCE": "MPSSC", "PARKING": "yes", "KIOSK": "yes", "DRINKING_W": "yes", "RESTROOM": "yes", "PARK": "Cascade Valley", "CONTACT_NU": "330-867-5511", "ADDRESS": "837 Cuyahoga Street", "ZIPCODE": "44313", "TRAIL4": "", "TRAIL5": "", "TRAIL6": "", "CITY": "Akron", "COUNTY": "Summit", "STATE": "Ohio", "STEWARD": "MPSSC" }, "geometry": { "type": "Point", "coordinates": [ -81.516578147437116, 41.119456668198772 ] } },
{ "type": "Feature", "properties": { "WKT": "POINT (-81.52807185198651 41.136279913681356)", "ID": "0", "NAME": "Schumacher Valley", "TRAIL1": "Schumacher Trail", "TRAIL2": "Valley Link Trail", "TRAIL3": "", "SOURCE": "MPSSC", "PARKING": "yes", "KIOSK": "yes", "DRINKING_W": "no", "RESTROOM": "no", "PARK": "Cascade Valley", "CONTACT_NU": "330-867-5511", "ADDRESS": "1690 Cuyahoga Street", "ZIPCODE": "44313", "TRAIL4": "", "TRAIL5": "", "TRAIL6": "", "CITY": "Akron", "COUNTY": "Summit", "STATE": "Ohio", "STEWARD": "MPSSC" }, "geometry": { "type": "Point", "coordinates": [ -81.52807185198651, 41.136279913681356 ] } },
{ "type": "Feature", "properties": { "WKT": "POINT (-81.575773448942513 41.140171565511103)", "ID": "0", "NAME": "Nature Realm", "TRAIL1": "Cherry Lane Trail", "TRAIL2": "Fernwood Trail", "TRAIL3": "Seneca Trail", "SOURCE": "MPSSC", "PARKING": "yes", "KIOSK": "yes", "DRINKING_W": "yes", "RESTROOM": "yes", "PARK": "F. A. Serberling Nature Realm", "CONTACT_NU": "330-867-5511", "ADDRESS": "1828 Smith Road", "ZIPCODE": "44313", "TRAIL4": "", "TRAIL5": "", "TRAIL6": "", "CITY": "Akron", "COUNTY": "Summit", "STATE": "Ohio", "STEWARD": "MPSSC" }, "geometry": { "type": "Point", "coordinates": [ -81.575773448942499, 41.140171565511103 ] } },
{ "type": "Feature", "properties": { "WKT": "POINT (-81.542301308061568 41.128369261222701)", "ID": "0", "NAME": "Administrative Office", "TRAIL1": "", "TRAIL2": "", "TRAIL3": "", "SOURCE": "MPSSC", "PARKING": "yes", "KIOSK": "no", "DRINKING_W": "no", "RESTROOM": "no", "PARK": "Sand Run", "CONTACT_NU": "330-867-5511", "ADDRESS": "975 Treaty Line Road", "ZIPCODE": "44313", "TRAIL4": "", "TRAIL5": "", "TRAIL6": "", "CITY": "Akron", "COUNTY": "Summit", "STATE": "Ohio", "STEWARD": "MPSSC" }, "geometry": { "type": "Point", "coordinates": [ -81.542301308061568, 41.128369261222701 ] } },
{ "type": "Feature", "properties": { "WKT": "POINT (-81.546232283378714 41.127159289841956)", "ID": "0", "NAME": "Treaty Line", "TRAIL1": "Parcours Trail", "TRAIL2": "", "TRAIL3": "", "SOURCE": "MPSSC", "PARKING": "yes", "KIOSK": "yes", "DRINKING_W": "yes", "RESTROOM": "yes", "PARK": "Sand Run", "CONTACT_NU": "330-867-5511", "ADDRESS": "995 Treaty Line Road", "ZIPCODE": "44313", "TRAIL4": "", "TRAIL5": "", "TRAIL6": "", "CITY": "Akron", "COUNTY": "Summit", "STATE": "Ohio", "STEWARD": "MPSSC" }, "geometry": { "type": "Point", "coordinates": [ -81.546232283378714, 41.127159289841956 ] } },
{ "type": "Feature", "properties": { "WKT": "POINT (-81.552012103804159 41.12973257813136)", "ID": "0", "NAME": "Lone Spruce", "TRAIL1": "Jogging Trail", "TRAIL2": "Valley Link", "TRAIL3": "", "SOURCE": "MPSSC", "PARKING": "yes", "KIOSK": "yes", "DRINKING_W": "yes", "RESTROOM": "yes", "PARK": "Sand Run", "CONTACT_NU": "330-867-5511", "ADDRESS": "1350 Sand Run Pkwy.", "ZIPCODE": "44333", "TRAIL4": "", "TRAIL5": "", "TRAIL6": "", "CITY": "Akron", "COUNTY": "Summit", "STATE": "Ohio", "STEWARD": "MPSSC" }, "geometry": { "type": "Point", "coordinates": [ -81.552012103804159, 41.12973257813136 ] } },
{ "type": "Feature", "properties": { "WKT": "POINT (-81.559033752217971 41.134417086288202)", "ID": "0", "NAME": "Wadsworth Area", "TRAIL1": "Jogging Trail", "TRAIL2": "Dogwood Trail", "TRAIL3": "", "SOURCE": "MPSSC", "PARKING": "yes", "KIOSK": "yes", "DRINKING_W": "yes", "RESTROOM": "yes", "PARK": "Sand Run", "CONTACT_NU": "330-867-5511", "ADDRESS": "1400 Sand Run Pkwy.", "ZIPCODE": "44333", "TRAIL4": "", "TRAIL5": "", "TRAIL6": "", "CITY": "Akron", "COUNTY": "Summit", "STATE": "Ohio", "STEWARD": "MPSSC" }, "geometry": { "type": "Point", "coordinates": [ -81.559033752217971, 41.134417086288202 ] } },
{ "type": "Feature", "properties": { "WKT": "POINT (-81.565471693853766 41.139228627584721)", "ID": "0", "NAME": "Mingo Pavilion", "TRAIL1": "Mingo Trail", "TRAIL2": "", "TRAIL3": "", "SOURCE": "MPSSC", "PARKING": "yes", "KIOSK": "yes", "DRINKING_W": "yes", "RESTROOM": "yes", "PARK": "Sand Run", "CONTACT_NU": "330-867-5511", "ADDRESS": "1501 Sand Run Pkwy", "ZIPCODE": "44333", "TRAIL4": "", "TRAIL5": "", "TRAIL6": "", "CITY": "Akron", "COUNTY": "Summit", "STATE": "Ohio", "STEWARD": "MPSSC" }, "geometry": { "type": "Point", "coordinates": [ -81.565471693853766, 41.139228627584714 ] } },
{ "type": "Feature", "properties": { "WKT": "POINT (-81.570195668445294 41.133885155806688)", "ID": "0", "NAME": "Shady Hollow Pavilion", "TRAIL1": "Mingo Trail", "TRAIL2": "", "TRAIL3": "", "SOURCE": "MPSSC", "PARKING": "yes", "KIOSK": "no", "DRINKING_W": "no", "RESTROOM": "no", "PARK": "Sand Run", "CONTACT_NU": "330-867-5511", "ADDRESS": "1750 Sand Run Pkwy.", "ZIPCODE": "44333", "TRAIL4": "", "TRAIL5": "", "TRAIL6": "", "CITY": "Akron", "COUNTY": "Summit", "STATE": "Ohio", "STEWARD": "MPSSC" }, "geometry": { "type": "Point", "coordinates": [ -81.570195668445294, 41.133885155806688 ] } },
{ "type": "Feature", "properties": { "WKT": "POINT (-81.596954492002624 41.133447763494004)", "ID": "0", "NAME": "Revere Lot", "TRAIL1": "Jogging Trail", "TRAIL2": "", "TRAIL3": "", "SOURCE": "MPSSC", "PARKING": "yes", "KIOSK": "yes", "DRINKING_W": "yes", "RESTROOM": "yes", "PARK": "Sand Run", "CONTACT_NU": "330-867-5511", "ADDRESS": "2400 Sand Run Pkwy.", "ZIPCODE": "44333", "TRAIL4": "", "TRAIL5": "", "TRAIL6": "", "CITY": "Akron", "COUNTY": "Summit", "STATE": "Ohio", "STEWARD": "MPSSC" }, "geometry": { "type": "Point", "coordinates": [ -81.596954492002624, 41.133447763494004 ] } },
{ "type": "Feature", "properties": { "WKT": "POINT (-81.567348732484945 41.130033743820931)", "ID": "0", "NAME": "North Hawkins Area", "TRAIL1": "Dogwood Trail", "TRAIL2": "", "TRAIL3": "", "SOURCE": "MPSSC", "PARKING": "yes", "KIOSK": "yes", "DRINKING_W": "yes", "RESTROOM": "yes", "PARK": "Sand Run", "CONTACT_NU": "330-867-5511", "ADDRESS": "800 North Hawkins Avenue", "ZIPCODE": "44333", "TRAIL4": "", "TRAIL5": "", "TRAIL6": "", "CITY": "Akron", "COUNTY": "Summit", "STATE": "Ohio", "STEWARD": "MPSSC" }, "geometry": { "type": "Point", "coordinates": [ -81.567348732484945, 41.130033743820931 ] } }
]
}
